N°;Village;Latitude;Longitude;Commune;Departement;Cercle;Debit (m3/h);Date de réception;Type;Type 1;PAYS
1;Agassa Godomey;6.53791666666667;2.37152777777778;Abomey Calavi;Atlantique;;15.7;;PMH;PMH;BENIN
2;Missessinto;6.51672222222222;2.35702777777778;Abomey Calavi;Atlantique;;15.7;;PMH;PMH;BENIN
3;Ahossougbeta;6.46819444444444;2.31477777777778;Abomey Calavi;Atlantique;;10;;PMH;PMH;BENIN
4;Tankpè;6.42825;2.31211111111111;Abomey Calavi;Atlantique;;15;;PMH;PMH;BENIN
5;Adjagbo;6.4875;2.27425;Abomey Calavi;Atlantique;;1.9;;PMH;PMH;BENIN
6;Adjagbo;6.50591666666667;2.28175;Abomey Calavi;Atlantique;;20;;PMH;PMH;BENIN
7;Attotinga;6.69936111111111;2.08658333333333;Allada;Atlantique;;5.46;;PMH;PMH;BENIN
8;Govié;6.65141666666667;2.20216666666667;Allada;Atlantique;;8.5;;PMH;PMH;BENIN
9;Houindjanawa;6.64622222222222;2.20322222222222;Allada;Atlantique;;10.8;;PMH;PMH;BENIN
10;Hessa;6.73869444444444;2.21286111111111;Allada;Atlantique;;5;;PMH;PMH;BENIN
11;GOUNONTOME;6.69290277777778;2.07481388888889;Allada;Atlantique;;5;;PMH;PMH;BENIN
12;Nougbohifi;6.49208333333333;2.09;Kpomassè;Atlantique;;11.4;;PMH;PMH;BENIN
13;Nougbohifi;6.4715;2.09594444444444;Kpomassè;Atlantique;;10.9;;PMH;PMH;BENIN
14;Assogbenou Kpevi;6.36244444444444;2.03630555555556;Kpomassè;Atlantique;;15;;PMH;PMH;BENIN
15;secome;6.44616666666667;2.01;Kpomassè;Atlantique;;8.6;;PMH;PMH;BENIN
16;Gbèfadji Aïdjedo;6.52247222222222;2.0085;Kpomassè;Atlantique;;6;;PMH;PMH;BENIN
17;Assogbenou Daho;6.46108333333333;2.091;Ouidah;Atlantique;;10.28;;PMH;PMH;BENIN
18;Dékouenou;6.39747222222222;2.12080555555556;Ouidah;Atlantique;;8.5;;PMH;PMH;BENIN
19;Ouesse;6.40811111111111;2.12277777777778;Ouidah;Atlantique;;10.33;;PMH;PMH;BENIN
20;Fonkounmè;6.46480555555556;2.10275;Ouidah;Atlantique;;14.4;;PMH;PMH;BENIN
21;Fonkounmè;6.45561111111111;2.13838888888889;Ouidah;Atlantique;;5.64;;PMH;PMH;BENIN
22;Fonkounmè;6.46058333333333;2.13211111111111;Ouidah;Atlantique;;15;;PMH;PMH;BENIN
23;Tchiakpècodji;6.42113888888889;2.17475;Ouidah;Atlantique;;24;;PMH;PMH;BENIN
24;Adjarra- Hounvè;6.44477777777778;2.19658333333333;Ouidah;Atlantique;;19.5;;PMH;PMH;BENIN
25; Ahomey ;6.57525;2.39930555555556;Sô- ava;Atlantique;;10.5;;PMH;PMH;BENIN
26;VEKKY DAHO;6.48613888888889;2.41530555555556;Sô- ava;Atlantique;;15.6;;PMH;PMH;BENIN
27;Houngo;6.51725;2.19369444444444;Tori-Bossito;Atlantique;;20;;PMH;PMH;BENIN
28;Soglogbo;6.61152777777778;2.18388888888889;Tori-Bossito;Atlantique;;2.8;;PMH;PMH;BENIN
29;Hounvié;6.50027777777778;2.16969444444444;Tori-Bossito;Atlantique;;12;;PMH;PMH;BENIN
30;Hounvié;6.501;2.15677777777778;Tori-Bossito;Atlantique;;15;;PMH;PMH;BENIN
31;Azohouè-Cada Houngo;6.59319444444444;2.08422222222222;Tori-Bossito;Atlantique;;5;;PMH;PMH;BENIN
32;Houédazounkpa;6.73211111111111;2.34863888888889;Zè;Atlantique;;8;;PMH;PMH;BENIN
33;Tanmè;6.60902777777778;2.27772222222222;Zè;Atlantique;;15;;PMH;PMH;BENIN
34;Anagbo;6.69705555555556;2.32130555555556;Zè;Atlantique;;7;;PMH;PMH;BENIN
35;KPOKPA;6.782;2.04811111111111;TOFFO;Atlantique;;45;;PMH;PMH;BENIN
36;AVISSA;6.78763888888889;2.10855555555556;TOFFO;Atlantique;;1.2;;PMH;PMH;BENIN
37;AZONME;6.94319444444444;2.28169444444444;TOFFO;Atlantique;;25;;PMH;PMH;BENIN
38;AGBAGA;6.91605555555556;2.19172222222222;TOFFO;Atlantique;;8;;PMH;PMH;BENIN
40;BOKOVI-TCHAKA;6.45733333333333;2.69480555555556;ADJARRA;Oueme;;11;;PMH;PMH;BENIN
41;TOKOMEY;6.46811111111111;2.68258333333333;ADJARRA;Oueme;;20;;PMH;PMH;BENIN
42;GASSAKO;6.50530555555556;2.66352777777778;ADJARRA;Oueme;;24;;PMH;PMH;BENIN
43;DJAVI TOGOH;6.51822222222222;2.69463888888889;ADJARRA;Oueme;;2.57;;PMH;PMH;BENIN
44;LINDA DANGBO;6.48847222222222;2.70275;ADJARRA;Oueme;;8;;PMH;PMH;BENIN
45;SILIKO;6.78491666666667;2.57125;ADJOHOUN;Oueme;;4;;PMH;PMH;BENIN
46;SILIKO;6.78244444444444;2.56963888888889;ADJOHOUN;Oueme;;3.13;;PMH;PMH;BENIN
47;ABIDOME;6.74783333333333;2.55016666666667;ADJOHOUN;Oueme;;;;PMH;PMH;BENIN
48;AWONOU;6.764;2.54872222222222;ADJOHOUN;Oueme;;1.01;;PMH;PMH;BENIN
49;AHLAN;6.68916666666667;2.48027777777778;ADJOHOUN;Oueme;;2;;PMH;PMH;BENIN
50;GLEDJI;6.68769444444444;2.49469444444444;ADJOHOUN;Oueme;;;;PMH;PMH;BENIN
51;KADEBOU ZOUNME;6.66558333333333;2.48997222222222;ADJOHOUN;Oueme;;1.131;;PMH;PMH;BENIN
52;GBEKANDJI;6.68419444444444;2.55377777777778;ADJOHOUN;Oueme;;5;;PMH;PMH;BENIN
53;SAHARO;6.72955555555556;2.53788888888889;ADJOHOUN;Oueme;;22.61;;PMH;PMH;BENIN
54;SISSEKPA;6.68352777777778;2.49847222222222;ADJOHOUN;Oueme;;12;;PMH;PMH;BENIN
55;SAHARO;6.72955555555556;2.53788888888889;ADJOHOUN;Oueme;;22.61;;PMH;PMH;BENIN
56;DEME CENTRE;6.68769444444444;2.49469444444444;ADJOHOUN;Oueme;;3;;PMH;PMH;BENIN
57;AWONOU;6.764;2.54872222222222;ADJOHOUN;Oueme;;1.01;;PMH;PMH;BENIN
58;SILIKO;6.81635277777778;2.54252777777778;ADJOHOUN;Oueme;;3.69;;PMH;PMH;BENIN
59;AKPADON;6.52084722222222;2.54051666666667;AGUEGUES;Oueme;;8.5;;PMH;PMH;BENIN
60;AGBODJEDO;6.50827777777778;2.56097222222222;AGUEGUES;Oueme;;10;;PMH;PMH;BENIN
61;AGBODJEDO;6.50608333333333;2.56230555555556;AGUEGUES;Oueme;;8;;PMH;PMH;BENIN
62;OUIYA;6.59897222222222;2.60369444444444;AKPRO- MISSERETE;Oueme;;15;;PMH;PMH;BENIN
63;KOUVE;6.56019444444444;2.56825;AKPRO- MISSERETE;Oueme;;5.26;;PMH;PMH;BENIN
64;SOGBE ALIGO;6.59938888888889;2.58738888888889;AKPRO- MISSERETE;Oueme;;20;;PMH;PMH;BENIN
65;TOHOUIKANME;6.60288888888889;2.60572222222222;AKPRO- MISSERETE;Oueme;;14;;PMH;PMH;BENIN
66;AFANDJITANME;6.61380555555556;2.61188888888889;AVRANKOU;Oueme;;15;;PMH;PMH;BENIN
67;DANME-KPOSSOU;6.61769444444444;2.63683333333333;AVRANKOU;Oueme;;4;;PMH;PMH;BENIN
68;KOUTI KARO;6.61866666666667;2.65366666666667;AVRANKOU;Oueme;;6;;PMH;PMH;BENIN
69;AZONZOUNME;6.84813888888889;2.50991666666667;BONOU;Oueme;;2.5;;PMH;PMH;BENIN
70;ALLANKPON;6.84066944444444;2.54048055555556;BONOU;Oueme;;5;;PMH;PMH;BENIN
71;AGBOSSO-KOTA;6.84011111111111;2.51041666666667;BONOU;Oueme;;8;;PMH;PMH;BENIN
72;ASROSSA;6.93052777777778;2.44305555555556;BONOU;Oueme;;;;PMH;PMH;BENIN
73;BONOU CENTRE;6.91083333333333;2.44838888888889;BONOU;Oueme;;;;PMH;PMH;BENIN
74;ASROSSA;6.93052777777778;2.44305555555556;BONOU;Oueme;;15;;PMH;PMH;BENIN
75;BONOU CENTRE;6.91083333333333;2.44838888888889;BONOU;Oueme;;22;;PMH;PMH;BENIN
76;SAILAGAR;6.61994444444445;2.53611111111111;DANGBO;Oueme;;4;;PMH;PMH;BENIN
77;AKPAME;6.5585;2.55997222222222;DANGBO;Oueme;;4.47;;PMH;PMH;BENIN
79;SOMBOUAN;10.4861111111111;2.58691666666667;BEMBEREKE;Borgou;;3.5;;PMH;PMH;BENIN
80;INA PEULH;9.96538888888889;2.68611111111111;BEMBEREKE;Borgou;;2.32;;PMH;PMH;BENIN
81;GUERRAN KALI;10.3525833333333;2.95511111111111;BEMBEREKE;Borgou;;3.5;;PMH;PMH;BENIN
82;BEROUBOUAY EST;10.56425;2.77988888888889;BEMBEREKE;Borgou;;1.21;;PMH;PMH;BENIN
83;GAMIA OUEST;10.4063055555556;2.72088888888889;BEMBEREKE;Borgou;;1.56;;PMH;PMH;BENIN
84;SEBANA;10.5525555555556;3.56991666666667;KALALE;Borgou;;1.3;;PMH;PMH;BENIN
85;GASSODJI;10.3705555555556;3.31905555555556;KALALE;Borgou;;2.3;;PMH;PMH;BENIN
86;BASSO PEULH;10.4920277777778;3.62391666666667;KALALE;Borgou;;2.01;;PMH;PMH;BENIN
87;BORONE;8.87991666666667;2.56161111111111;TCHAOUROU;Borgou;;2.5;;PMH;PMH;BENIN
88;KPESSOU;9.28694444444444;2.13141666666667;TCHAOUROU;Borgou;;7;;PMH;PMH;BENIN
89;KIKA 1;9.26844444444444;2.78652777777778;TCHAOUROU;Borgou;;1.2;;PMH;PMH;BENIN
90;MONRA WONKOUROU;9.28411111111111;3.04486111111111;TCHAOUROU;Borgou;;1.85;;PMH;PMH;BENIN
91;PAPANE;8.81622222222222;2.61483333333333;TCHAOUROU;Borgou;;0.8;;PMH;PMH;BENIN
92;MAREGOUROU;9.83030555555555;2.47372222222222;N'DALI;Borgou;;2.7;;PMH;PMH;BENIN
93;SINA WOURAROU;9.5595;2.13969444444444;N'DALI;Borgou;;1.5;;PMH;PMH;BENIN
94;N'DALI PEULH;9.82958333333333;2.75097222222222;N'DALI;Borgou;;1.3;;PMH;PMH;BENIN
95;BOUCANERE;9.98933333333333;3.29172222222222;NIKKI;Borgou;;2;;PMH;PMH;BENIN
96;SAKABANSI;10.1082222222222;3.43908333333333;NIKKI;Borgou;;1.1;;PMH;PMH;BENIN
97;KASSAKPERE;9.92994444444444;3.12933333333333;NIKKI;Borgou;;1.1;;PMH;PMH;BENIN
98;GBABIRE;9.70155555555555;3.16238888888889;NIKKI;Borgou;;1.2;;PMH;PMH;BENIN
99;GAH MARO;9.93744444444444;3.20336111111111;NIKKI;Borgou;;4.01;;PMH;PMH;BENIN
100;KPEDIE;9.65822222222222;2.9565;PERERE;Borgou;;1.1;;PMH;PMH;BENIN
101;BORI KOROU;9.78363888888889;3.08897222222222;PERERE;Borgou;;1;;PMH;PMH;BENIN
102;TABEROU;9.71280555555555;3.09252777777778;PERERE;Borgou;;6;;PMH;PMH;BENIN
103;GBANDE;9.41263888888889;2.84561111111111;PERERE;Borgou;;5;;PMH;PMH;BENIN
104;BOROU;9.50152777777778;3.03838888888889;PERERE;Borgou;;3.5;;PMH;PMH;BENIN
105;GOROBANI;10.2141944444444;2.31675;SINENDE;Borgou;;3;;PMH;PMH;BENIN
106;SINENDE PEUHL;10.2827777777778;2.40858333333333;SINENDE;Borgou;;4.43;;PMH;PMH;BENIN
107;SIKKI PEUHL I;10.1795;2.43627777777778;SINENDE;Borgou;;1.02;;PMH;PMH;BENIN
108;GNANRO BATONWOROU;10.3744166666667;2.40855555555556;SINENDE;Borgou;;3;;PMH;PMH;BENIN
109;NAREROU;10.0495;2.34088888888889;SINENDE;Borgou;;2.52;;PMH;PMH;BENIN
110;BANIKANNI DONWEROU;9.47538888888889;2.48080555555556;PARAKOU;Borgou;;3.15;;PMH;PMH;BENIN
111;BA MORA;9.31872222222222;2.64838888888889;PARAKOU;Borgou;;2.5;;PMH;PMH;BENIN
112;DOKPAROU;9.37758333333333;2.65272222222222;PARAKOU;Borgou;;1.6;;PMH;PMH;BENIN
114;AHOME LOKPO;6.59986111111111;2.41305555555556;SO AVA;ATLANTIQUE;;10;;PEA;PEA;BENIN
115;ZOUGOMEY;6.60116666666667;2.40155555555556;SO AVA;ATLANTIQUE;;10;;PEA;PEA;BENIN
116;AGBOSSA;6.81247222222222;2.53463888888889;ADJOHOUN;OUEME;;6.58;;PEA;PEA;BENIN
117;AGONHOUI;6.87978888888889;2.51481111111111;BONOU;OUEME;;4.28;;PEA;PEA;BENIN
118;KEROUKPOGOH;10.1083333333333;2.64888611111111;BEMBEREKE;BORGOU;;7.71;;PEA;PEA;BENIN
119;WARI-KPAWA;9.15863055555556;2.06295555555556;TCAHOUROU;BORGOU;;15.5;;PEA;PEA;BENIN
121;Natema;11.3924722222222;-4.50783333333333;Bama;;;4;;PMH;PMH;BURKINA FASO
122;Badara;11.3659;-4.34333611111111;Bama;;;3.4;;PMH;PMH;BURKINA FASO
123;Nieguema;11.4817777777778;-4.30575;Bama;;;3;;PMH;PMH;BURKINA FASO
124;Séguéré;11.5493888888889;-4.34811111111111;Bama;;;1.8;;PMH;PMH;BURKINA FASO
125;Tanwogoma;11.4441944444444;-4.33375;Bama;;;5;;PMH;PMH;BURKINA FASO
126;Samendeni;11.4616666666667;-4.44758333333333;Bama;;;1.2;;PMH;PMH;BURKINA FASO
127;Desso;11.3480555555556;-4.29193888888889;Bama;;;26.4;;PMH;PMH;BURKINA FASO
128;Bakaribougou;11.6454722222222;-4.55705555555556;Dande;;;36;;PMH;PMH;BURKINA FASO
129;Koreba;11.665875;-4.57873888888889;Dande;;;3.6;;PMH;PMH;BURKINA FASO
130;Dangoumani;11.8636972222222;-4.61405277777778;Fo;;;8;;PMH;PMH;BURKINA FASO
131;Dorona;11.9786222222222;-4.5706;Fo;;;6;;PMH;PMH;BURKINA FASO
132;Dorona;11.9697277777778;-4.56983333333333;Fo;;;9;;PMH;PMH;BURKINA FASO
133;Kibé;11.8576222222222;-4.46165277777778;Fo;;;10.8;;PMH;PMH;BURKINA FASO
134;Kokoroba;11.8234666666667;-4.48110555555556;Fo;;;10;;PMH;PMH;BURKINA FASO
135;Mossibougou;11.8117444444444;-4.51808888888889;Fo;;;14.4;;PMH;PMH;BURKINA FASO
136;Mossibougou;11.8030027777778;-4.51690833333333;Fo;;;36;;PMH;PMH;BURKINA FASO
137;Mossibougou;11.8005388888889;-4.51955833333333;Fo;;;36;;PMH;PMH;BURKINA FASO
138;Kiébani;11.9546861111111;-4.42846666666667;Fo;;;13.5;;PMH;PMH;BURKINA FASO
139;Bouboura;11.9546666666667;-4.42844444444444;Fo;;;15;;PMH;PMH;BURKINA FASO
140;Kiébani;11.9030638888889;-4.45124444444444;Fo;;;13;;PMH;PMH;BURKINA FASO
141;Mossibougou;11.793;-4.51963888888889;Fo;;;16;;PMH;PMH;BURKINA FASO
142;Mossibougou;11.7974444444444;-4.51716666666667;Fo;;;14;;PMH;PMH;BURKINA FASO
143;Dorona;11.97575;-4.56877777777778;Fo;;;12;;PMH;PMH;BURKINA FASO
144;Kogoue;11.9357416666667;-4.55953888888889;Fo;;;2.5;;PMH;PMH;BURKINA FASO
145;Bouende;11.1877222222222;-4.60572222222222;Karankasso Sambla;;;7;;PMH;PMH;BURKINA FASO
146;Bouende;11.19;-4.61961111111111;Karankasso Sambla;;;8.5;;PMH;PMH;BURKINA FASO
147;Souroukoudinga;11.2340111111111;-4.53411666666667;Karankasso Sambla;;;10;;PMH;PMH;BURKINA FASO
148;Tiara;11.1004416666667;-4.59192222222222;Karankasso Sambla;;;11;;PMH;PMH;BURKINA FASO
149;Karankasso Sambla;11.2322222222222;-4.64886111111111;Karankasso Sambla;;;2;;PMH;PMH;BURKINA FASO
150;Samatoukoro;11.0249194444444;-4.67188611111111;Karankasso Sambla;;;12;;PMH;PMH;BURKINA FASO
151;Bankouma;11.8769166666667;-4.06077777777778;Padema;;;8;;PMH;PMH;BURKINA FASO
152;Hamdalaye;11.6935277777778;-4.17088888888889;Padema;;;7.2;;PMH;PMH;BURKINA FASO
153;Kimini;11.8170277777778;-4.23380555555556;Padema;;;2.64;;PMH;PMH;BURKINA FASO
154;Kimini;11.8202305555556;-4.23575555555556;Padema;;;1.3;;PMH;PMH;BURKINA FASO
155;Soma;11.7677777777778;-4.17130555555556;Padema;;;3;;PMH;PMH;BURKINA FASO
156;Zongoma;11.5926944444444;-4.30455555555556;Padema;;;9;;PMH;PMH;BURKINA FASO
157;Kofila;12.3535316666667;-3.95191;Lena;;;1.4;;PMH;PMH;BURKINA FASO
158;Bossora;11.6380277777778;-4.1055;Satiri;;;18;;PMH;PMH;BURKINA FASO
159;Bossora;11.6398333333333;-4.06203611111111;Satiri;;;5;;PMH;PMH;BURKINA FASO
160;Bossora;11.6584722222222;-4.07483333333333;Satiri;;;10;;PMH;PMH;BURKINA FASO
161;Bossora;11.65625;-4.05375;Satiri;;;3.55;;PMH;PMH;BURKINA FASO
162;Bossora;11.6584166666667;-4.01330555555556;Satiri;;;8;;PMH;PMH;BURKINA FASO
163;Bossora;11.7598361111111;-4.05047222222222;Satiri;;;6.1;;PMH;PMH;BURKINA FASO
164;Bossora;11.69723;-3.99414666666667;Satiri;;;7;;PMH;PMH;BURKINA FASO
165;Bambe;12.0330472222222;-4.63201944444445;Faramana;;;12;;PMH;PMH;BURKINA FASO
166;Kouakourima;12.02725;-4.55886111111111;Faramana;;;7;;PMH;PMH;BURKINA FASO
167;Bena;12.0670833333333;-4.57488888888889;Faramana;;;18;;PMH;PMH;BURKINA FASO
168;Koby;12.0258611111111;-4.56033333333333;Faramana;;;9;;PMH;PMH;BURKINA FASO
169;Ty;12.05495;-4.59984166666667;Faramana;;;9;;PMH;PMH;BURKINA FASO
170;Koni;12.0605138888889;-4.53304166666667;Faramana;;;0.8;;PMH;PMH;BURKINA FASO
171;Siankoro;12.0099444444444;-4.55505833333333;Faramana;;;3.6;;PMH;PMH;BURKINA FASO
172;Koby;12.0530833333333;-4.58905555555556;Faramana;;;15;;PMH;PMH;BURKINA FASO
173;Koby;12.0577361111111;-4.53304166666667;Faramana;;;1.2;;PMH;PMH;BURKINA FASO
174;Bambe;12.0159444444444;-4.63655555555555;Faramana;;;10;;PMH;PMH;BURKINA FASO
175;Kounseni;11.2776944444444;-4.75244444444444;Banzon;;;7.2;;PMH;PMH;BURKINA FASO
176;Senzon;11.282115;-4.83060944444444;Banzon;;;9;;PMH;PMH;BURKINA FASO
177;Senzon;11.2781388888889;-4.83611111111111;Banzon;;;5;;PMH;PMH;BURKINA FASO
178;Banzon;11.3147716666667;-4.79722333333333;Banzon;;;8;;PMH;PMH;BURKINA FASO
179;Banakoro;11.4832777777778;-4.75262166666667;Samorogouan;;;7;;PMH;PMH;BURKINA FASO
180;Banakoro;11.4805888888889;-4.97028333333333;Samorogouan;;;5.1;;PMH;PMH;BURKINA FASO
181;Karna;11.4583027777778;-5.02146666666667;Samorogouan;;;40;;PMH;PMH;BURKINA FASO
182;Karna;11.4582916666667;-5.02146666666667;Samorogouan;;;42;;PMH;PMH;BURKINA FASO
183;Korkorla;11.5643555555556;-4.94711388888889;Samorogouan;;;8.64;;PMH;PMH;BURKINA FASO
184;Korkorla;11.56675;-4.94513611111111;Samorogouan;;;4;;PMH;PMH;BURKINA FASO
185;N'Dana;11.4676055555556;-5.01093055555556;Samorogouan;;;6.6;;PMH;PMH;BURKINA FASO
186;N'Dana;11.3045222222222;-5.01381666666667;Samorogouan;;;15.8;;PMH;PMH;BURKINA FASO
187;Sana;11.5547611111111;-4.99318611111111;Samorogouan;;;7;;PMH;PMH;BURKINA FASO
188;Sokoro;11.4552416666667;-4.99972222222222;Samorogouan;;;4;;PMH;PMH;BURKINA FASO
189;Bonza-Pougouli;11.3758888888889;-3.12564166666667;Koti;;;15;;PMH;PMH;BURKINA FASO
190;Bonza-Pougouli;11.3774722222222;-3.11701944444444;Koti;;;3.6;;PMH;PMH;BURKINA FASO
191;Lofikanon;11.5836588888889;-3.579375;Bereba;;;0.8;;PMH;PMH;BURKINA FASO
192;Lofikanon;11.5419894444444;-3.668325;Bereba;;;2;;PMH;PMH;BURKINA FASO
193;Lofikanon;11.6312777777778;-3.65866666666667;Bereba;;;2;;PMH;PMH;BURKINA FASO
194;Popioho;11.6906619444444;-3.69442777777778;Bereba;;;5;;PMH;PMH;BURKINA FASO
195; ;11.6392116666667;#VALEUR!;Bereba;;;7.5;;PMH;PMH;BURKINA FASO
196;Popioho;11.6866444444444;-3.70201666666667;Bereba;;;9;;PMH;PMH;BURKINA FASO
197;Tiombio;11.7867166666667;-3.61275277777778;Bereba;;;2.2;;PMH;PMH;BURKINA FASO
198;Tiombio;11.7394333333333;-3.58387777777778;Bereba;;;1.6;;PMH;PMH;BURKINA FASO
199;Bouaky;11.42685;-3.45662777777778;Houndé;;;9;;PMH;PMH;BURKINA FASO
200;Bekuy;11.6444166666667;-3.88644444444444;Bekuy;;;2;;PMH;PMH;BURKINA FASO
201;Bekuy;11.8147583333333;-4.04451111111111;Bekuy;;;1;;PMH;PMH;BURKINA FASO
202;SARA;11.7715277777778;-3.93066666666667;Bekuy;;;9;;PMH;PMH;BURKINA FASO
203;Yasso;12.35684;-4.05729;Balave;;;12;;PMH;PMH;BURKINA FASO
204;Badinga;12.3513833333333;-4.19264;Balave;;;12;;PMH;PMH;BURKINA FASO
205;Balave;12.4218933333333;-4.12440166666667;Balave;;;4.5;;PMH;PMH;BURKINA FASO
206;Balave;12.4204833333333;-4.120735;Balave;;;3;;PMH;PMH;BURKINA FASO
207;Hasbihalaye;12.4076416666667;-4.10729333333333;Balave;;;12;;PMH;PMH;BURKINA FASO
208;Koulakou;11.7681666666667;-4.37732833333333;Kouka;;;1;;PMH;PMH;BURKINA FASO
209;Kouroumani;11.81242;-4.41437166666667;Kouka;;;14;;PMH;PMH;BURKINA FASO
210;Kouroumani;11.8175433333333;-4.43261833333333;Kouka;;;14.5;;PMH;PMH;BURKINA FASO
211;Molle;11.9605961111111;-4.30991944444444;Kouka;;;12;;PMH;PMH;BURKINA FASO
212;Sama;11.7763172222222;-4.33105833333333;Kouka;;;0.7;;PMH;PMH;BURKINA FASO
213;Fini;11.8396483333333;-4.36007833333333;Kouka;;;0.7;;PMH;PMH;BURKINA FASO
214;Bankouma;11.8780583333333;-4.25907833333333;Kouka;;;5;;PMH;PMH;BURKINA FASO
215;Kouka;11.9060383333333;-4.35206;Kouka;;;16;;PMH;PMH;BURKINA FASO
216;Sirabadara;12.033055;-4.31271;Kouka;;;9;;PMH;PMH;BURKINA FASO
217;Sirabadara;12.0280061111111;-4.31599833333333;Kouka;;;14;;PMH;PMH;BURKINA FASO
218;Sirabadara;12.0331616666667;-4.31822666666667;Kouka;;;18;;PMH;PMH;BURKINA FASO
219;Siwi;11.7864883333333;-4.25349333333333;Kouka;;;10;;PMH;PMH;BURKINA FASO
220;Dere;#VALEUR!;#VALEUR!;Sami;;; 2.1;;PMH;PMH;BURKINA FASO
221;Dere;12.0312033333333;-4.46414944444444;Sami;;;1.2;;PMH;PMH;BURKINA FASO
222;Dima;12.1092483333333;-4.57375333333333;Sami;;;6;;PMH;PMH;BURKINA FASO
223;Sagoeta;12.1274766666667;-4.41670222222222;Sami;;;1;;PMH;PMH;BURKINA FASO
224;Basnere;12.2129233333333;-4.39904;Sami;;;3.5;;PMH;PMH;BURKINA FASO
225;Basnere;12.2149483333333;-4.40114833333333;Sami;;;1.7;;PMH;PMH;BURKINA FASO
226;Siemde;12.1196944444444;-4.50830555555556;Sami;;;0.8;;PMH;PMH;BURKINA FASO
227;Koba;12.5208983333333;-3.924245;Sanaba;;;0.7;;PMH;PMH;BURKINA FASO
228;Koba;12.5108055555556;-3.92725;Sanaba;;;1.4;;PMH;PMH;BURKINA FASO
229;Moussakuy;12.4913966666667;-3.698665;Sanaba;;;2.5;;PMH;PMH;BURKINA FASO
230;Timba;12.4683366666667;-3.69640333333333;Sanaba;;;9;;PMH;PMH;BURKINA FASO
231;Founa;12.4400866666667;-3.694445;Sanaba;;;2;;PMH;PMH;BURKINA FASO
232;Founa;12.44302;-3.69971;Sanaba;;;1.8;;PMH;PMH;BURKINA FASO
233;Dio;12.297395;-3.83069166666667;Sanaba;;;6;;PMH;PMH;BURKINA FASO
234;Dio;12.27972;-3.86519;Sanaba;;;7.2;;PMH;PMH;BURKINA FASO
235;Gomtenga;12.2834722222222;-3.8184;Sanaba;;;2;;PMH;PMH;BURKINA FASO
236;Kosso;12.4288383333333;-3.62505833333333;Sanaba;;;8;;PMH;PMH;BURKINA FASO
237;Darsalam;11.9919366666667;-4.00005555555556;Solenzo;;;10;;PMH;PMH;BURKINA FASO
238;Moussakongo;12.2797083333333;-4.12886;Solenzo;;;9;;PMH;PMH;BURKINA FASO
239;Toukoro;12.1169316666667;-4.337175;Solenzo;;;5;;PMH;PMH;BURKINA FASO
240;Toukoro;12.0931166666667;-4.33393888888889;Solenzo;;;6;;PMH;PMH;BURKINA FASO
241;Denkoro;12.2618;-4.10576166666667;Solenzo;;;14;;PMH;PMH;BURKINA FASO
242;Toukoro;12.1357888888889;-4.365725;Solenzo;;;20;;PMH;PMH;BURKINA FASO
243;Bonzon;12.1114722222222;-3.95486111111111;Solenzo;;;7.2;;PMH;PMH;BURKINA FASO
244;Toukoro;12.1699533333333;-3.89903444444444;Solenzo;;;6;;PMH;PMH;BURKINA FASO
245;Ouokowo;12.25968;-4.34582666666667;Tansila;;;2.5;;PMH;PMH;BURKINA FASO
246;Tille;12.403745;-4.43084;Tansila;;;0.7;;PMH;PMH;BURKINA FASO
247;Driko;12.5323405555556;-4.26716166666667;Tansila;;;0.75;;PMH;PMH;BURKINA FASO
248;Féléwé;12.5323405555556;-4.26716166666667;Tansila;;;6;;PMH;PMH;BURKINA FASO
249;Toula hameau;12.5664816666667;-4.30586666666667;Tansila;;;2;;PMH;PMH;BURKINA FASO
250;Ty;12.28307;-4.468465;Tansila;;;1.5;;PMH;PMH;BURKINA FASO
251;Bolomakoté;11.9183138888889;-3.92184444444444;Bondokuy;;;10;;PMH;PMH;BURKINA FASO
252;Moukouna;11.8654694444444;-3.88666111111111;Bondokuy;;;12;;PMH;PMH;BURKINA FASO
253;;;;;;;;;;;BURKINA FASO
254;Kogouè;11.53725;-4.51966666666667;Fo;;;20;;AEP;AEPS;BURKINA FASO
255;Dawéra;11.7984166666667;-4.57597222222222;Fo;;;55;;AEP;AEPS;BURKINA FASO
256;Djigouèma;11.6797666666667;-4.28326944444444;Padéma;;;5.1;;AEP;AEPS;BURKINA FASO
257;Samandéni;11.44675;-4.45280555555556;Bama;;;5;;AEP;AEPS;BURKINA FASO
258;Kogodjan;11.6090555555556;-4.43622222222222;Dandé;;;12;;AEP;AEPS;BURKINA FASO
259;Samatoukoro;11.0274888888889;-4.64751944444444;Karangasso Sambla;;;27;;AEP;AEPS;BURKINA FASO
260;Tien;12.0510833333333;-4.53661111111111;Péni;;;8;;AEP;AEPS;BURKINA FASO
261;Sokoroba;10.8433333333333;-5.16694444444444;Kangala;;;18;;AEP;AEPS;BURKINA FASO
262;Niamberla;11.8611805555556;-5.10374166666667;Morolaba;;;18;;AEP;AEPS;BURKINA FASO
263;N'Gana;11.4287222222222;-4.85377777777778;Samorogouan;;;16.8;;AEP;AEPS;BURKINA FASO
264;Sourou;11.4153611111111;-5.06891666666667;Samorogouan;;;39.6;;AEP;AEPS;BURKINA FASO
265;Bassé;11.8047777777778;-4.00422222222222;Békuy;;;32;;AEP;AEPS;BURKINA FASO
266;Bonsè;11.3085416666667;-3.507125;Koumbia;;;7;;AEP;AEPS;BURKINA FASO
267;;;;;;;;;;;BURKINA FASO
268;Diontala ;11.7641888888889;-4.45587222222222;Kouka ;;;30;;AEP;AEPS;BURKINA FASO
269;Bankouma;11.877045;-4.26104666666667;Kouka ;;;24;;AEP;AEPS;BURKINA FASO
270;Kossoba;12.470675;-3.94943611111111;Sanaba;;;4.5;;AEP;AEPS;BURKINA FASO
271;Bayé;12.0615033333333;-4.076785;Solenzo;;;4.9;;AEP;AEPS;BURKINA FASO
272;Toukoro;12.1205472222222;-4.33728333333333;Solenzo;;;14;;AEP;AEPS;BURKINA FASO
273;Bolomakoté;11.88575;-3.95166666666667;Bondoukuy;;;40;;AEP;AEPS;BURKINA FASO
274;Oulani;12.3721138888889;-3.36971388888889;Dédougou;;;18;;AEP;AEPS;BURKINA FASO
276;Bossora;11.6581388888889;-4.20733333333333;Satiri;;;18;;AEPMV;AEP MULTI VILLAGES;BURKINA FASO
277;Séguéré;11.52925;-4.39080555555556;Bama;;;30;;AEPMV;AEP MULTI VILLAGES;BURKINA FASO
278;Lanfiera Koura ;11.5586694444444;-4.53526666666667;Dandé;;;7;;AEPMV;AEP MULTI VILLAGES;BURKINA FASO
279;Bah;11.23775;-4.03511111111111;Lèna;;;7.9;;AEPMV;AEP MULTI VILLAGES;BURKINA FASO
280;N'Dosso;11.9633833333333;-4.76216666666667;Kayan;;;20;;AEPMV;AEP MULTI VILLAGES;BURKINA FASO
281;Indini;11.41977;-2.98708666666667;Koti;;;12;;AEPMV;AEP MULTI VILLAGES;BURKINA FASO
282;Dougoumato 1;11.2012777777778;-3.78511111111111;Koumbia;;;22.6;;AEPMV;AEP MULTI VILLAGES;BURKINA FASO
284;AEMVBF1;11.6588055555556;-4.19277777777778;Satiri;;;18;;AEPMV;AEP MULTI VILLAGES;BURKINA FASO
285;AEMVBF2;11.5797777777778;-4.32361111111111;Bama;;;30;;AEPMV;AEP MULTI VILLAGES;BURKINA FASO
286;AEMVBF3;;;Dandé;;;7;;AEPMV;AEP MULTI VILLAGES;BURKINA FASO
287;AEMVBF4;11.2505277777778;-4.03722222222222;Lèna;;;7.9;;AEPMV;AEP MULTI VILLAGES;BURKINA FASO
288;AEMVBF5;11.9570833333333;-4.75497222222222;Kayan;;;20;;AEPMV;AEP MULTI VILLAGES;BURKINA FASO
289;AEMVBF6;11.4320277777778;-2.96955555555556;Koti;;;12;;AEPMV;AEP MULTI VILLAGES;BURKINA FASO
290;AEMVBF7;11.2163611111111;-3.7525;Koumbia;;;22.6;;AEPMV;AEP MULTI VILLAGES;BURKINA FASO
292;Béna;12.0771611111111;-4.17986944444444;Solenzo;;;72;;AEPMV;AEP MULTI VILLAGES;BURKINA FASO
293;Siguinoghin;12.0010777777778;-4.25045277777778;Solenzo;;;30;;AEPMV;AEP MULTI VILLAGES;BURKINA FASO
294;Yasso;12.3894444444444;-4.01808611111111;Balava;;;32;;AEPMV;AEP MULTI VILLAGES;BURKINA FASO
295;Moukouma;11.8401666666667;-3.81941666666667;Bondoukuy;;;30;;AEPMV;AEP MULTI VILLAGES;BURKINA FASO
296;Passakongo;12.5118055555556;-3.42990833333333;Dédougou;;;12;;AEPMV;AEP MULTI VILLAGES;BURKINA FASO
298;AEMVBF8;12.1089444444444;-4.092;Solenzo;;;72;;AEPMV;AEP MULTI VILLAGES;BURKINA FASO
299;AEMVBF9;12.01525;-4.24858333333333;Solenzo;;;30;;AEPMV;AEP MULTI VILLAGES;BURKINA FASO
300;AEMVBF10;;;Balava;;;32;;AEPMV;AEP MULTI VILLAGES;BURKINA FASO
301;AEMVBF11;11.8368888888889;-3.81619444444444;Bondoukuy;;;30;;AEPMV;AEP MULTI VILLAGES;BURKINA FASO
302;AEMVBF12;;;Dédougou;;;12;;AEPMV;AEP MULTI VILLAGES;BURKINA FASO
304;GOUENZOU;10.107819;-7.837916;;MINIGNAN;;7;;PMH;PMH;COTE D'IVOIRE
305;YELLE;9.9624976991542;-6.2214727223366;;BOUNDIALI;;2.4;;PMH;PMH;COTE D'IVOIRE
306;NONKPARADOUGOU;9.5760126016479;-6.2665982577653;;BOUNDIALI;;5.4;;PMH;PMH;COTE D'IVOIRE
307;FARANDOUGOU;9.2169148661389;-6.6672402399859;;BOUNDIALI;;9;;PMH;PMH;COTE D'IVOIRE
308;NDARA;9.4571632841825;-6.3994254576373;;BOUNDIALI;;21;;PMH;PMH;COTE D'IVOIRE
309;BONGANA;9.6042946344437;-6.2703408471314;;BOUNDIALI;;13.5;;PMH;PMH;COTE D'IVOIRE
310;TOMBOUGOU;9.5705130508874;-6.4993420535836;;BOUNDIALI;;18;;PMH;PMH;COTE D'IVOIRE
311;DJIGBE;9.2104867447627;-6.3904411499979;;BOUNDIALI;;2.7;;PMH;PMH;COTE D'IVOIRE
312;KARAKPO;9.3184324692272;-6.5066559122314;;BOUNDIALI;;2;;PMH;PMH;COTE D'IVOIRE
313;ZIEDOUGOU;9.2537600050246;-6.4929414757529;;BOUNDIALI;;2.7;;PMH;PMH;COTE D'IVOIRE
314;KOUNOUMON;9.9636158406756;-6.359199990293;;BOUNDIALI;;22;;PMH;PMH;COTE D'IVOIRE
315;KATIALI;9.1563339809022;-6.4901634911123;;BOUNDIALI;;4.5;;PMH;PMH;COTE D'IVOIRE
316;GBALLO;9.8474985468546;-6.2984667767795;;BOUNDIALI;;6;;PMH;PMH;COTE D'IVOIRE
317;SIENRE;9.8126087615508;-6.0571849965896;;BOUNDIALI;;2.2;;PMH;PMH;COTE D'IVOIRE
318;GBAMBIASSO;9.769710038808;-6.3704642672054;;KOUTO;;12.6;;PMH;PMH;COTE D'IVOIRE
319;BLEDIEMENE;9.7731927071711;-6.56134984794;;KOUTO;;2.8;;PMH;PMH;COTE D'IVOIRE
320;NIMBRINI;9.9273295400959;-6.5593695186634;;KOUTO;;5.2;;PMH;PMH;COTE D'IVOIRE
321;NIMBIASSO;9.9636480402126;-6.4386968590414;;KOUTO;;3.6;;PMH;PMH;COTE D'IVOIRE
322;SINGO;10.198073964654;-6.3057937227653;;KOUTO;;3.2;;PMH;PMH;COTE D'IVOIRE
323;SISSENGUE;10.710043165553;-6.2140045550356;;TENGRELA;;1.4;;PMH;PMH;COTE D'IVOIRE
324;POPO;10.315800068913;-6.3155546772639;;TENGRELA;;12;;PMH;PMH;COTE D'IVOIRE
325;ZANEKAN;10.303434310555;-6.2503816228921;;TENGRELA;;2.7;;PMH;PMH;COTE D'IVOIRE
326;DJONKANASSO;10.462302811139;-6.2952618185219;;TENGRELA;;10;;PMH;PMH;COTE D'IVOIRE
327;KOLONZA;10.650066512531;-6.4055475586157;;TENGRELA;;7.8;;PMH;PMH;COTE D'IVOIRE
328;BOUGOULA;10.449499167362;-6.5523612600102;;TENGRELA;;4.5;;PMH;PMH;COTE D'IVOIRE
329;MANIASSO 2;10.45067823994;-6.459334691834;;TENGRELA;;1.7;;PMH;PMH;COTE D'IVOIRE
330;KOUROUKORO;10.414763316658;-6.5869562122694;;TENGRELA;;9.7;;PMH;PMH;COTE D'IVOIRE
331;TIAMPA 2;10.416686152346;-6.5392446502209;;TENGRELA;;2.3;;PMH;PMH;COTE D'IVOIRE
332;ZIEKOUNDOUGOU;10.535743116771;-6.2507984306186;;TENGRELA;;2.8;;PMH;PMH;COTE D'IVOIRE
333;OUAMESSIONKAHA;8.8275625773438;-5.7636374208176;;DIKODOUGOU;;2.1;;PMH;PMH;COTE D'IVOIRE
334;PINDOKAHA;9.1610578278772;-5.874477699564;;DIKODOUGOU;;5.7;;PMH;PMH;COTE D'IVOIRE
335;TAGBARA;9.1598151933586;-5.6870037424595;;DIKODOUGOU;;1.3;;PMH;PMH;COTE D'IVOIRE
336;TIEGANA;9.2055394280595;-5.7080999582969;;DIKODOUGOU;;11;;PMH;PMH;COTE D'IVOIRE
337;DIERISSONKAHA;9.4710263075347;-5.536213618289;;KORHOGO;;2.5;;PMH;PMH;COTE D'IVOIRE
338;NENEKRI;9.5619981141797;-5.8327323014248;;KORHOGO;;7;;PMH;PMH;COTE D'IVOIRE
339;SIENEKASSOUNGBARAGA;9.5607575775141;-5.7499192658475;;KORHOGO;;6;;PMH;PMH;COTE D'IVOIRE
340;DIOFONKAHA;9.2371698385022;-5.5390303460679;;KORHOGO;;18;;PMH;PMH;COTE D'IVOIRE
341;SIELOUHO;9.6577402122962;-6.0751742425608;;KORHOGO;;4.8;;PMH;PMH;COTE D'IVOIRE
342;KOMBOLOKORO;9.4547086154568;-5.9776348567155;;KORHOGO;;4;;PMH;PMH;COTE D'IVOIRE
343;LOUKPAN;9.6339227487857;-6.0799130994921;;KORHOGO;;2.1;;PMH;PMH;COTE D'IVOIRE
344;NAGINVOGO;9.6652211076931;-5.5345673489016;;KORHOGO;;3.2;;PMH;PMH;COTE D'IVOIRE
345;NAMENINVOGO;9.6725036036192;-5.5100691921079;;KORHOGO;;13;;PMH;PMH;COTE D'IVOIRE
346;FODONZOLOGO;9.3576264742027;-5.6837132565616;;KORHOGO;;13.5;;PMH;PMH;COTE D'IVOIRE
347;TIEBILA;9.7467725216243;-5.8287682534069;;MBENGUE;;1;;PMH;PMH;COTE D'IVOIRE
348;TIONGOFOLOKAHA;9.6304413585499;-5.4276369556325;;SINEMATIALI;;1.2;;PMH;PMH;COTE D'IVOIRE
349;ZIEKAHA;9.5928833211354;-5.4404901400104;;SINEMATIALI;;1.8;;PMH;PMH;COTE D'IVOIRE
350;NAMBONAKAHA ;9.2684735301273;-5.6436583005097;;SINEMATIALI;;1.1;;PMH;PMH;COTE D'IVOIRE
351;PEGANKAHA;9.5302101462295;-5.4394240973697;;SINEMATIALI;;1.2;;PMH;PMH;COTE D'IVOIRE
352;FODONDAHA;9.4608160105158;-5.3518879413834;;SINEMATIALI;;1.2;;PMH;PMH;COTE D'IVOIRE
354;TAPERE;9.0842;-5.8607;;DIKODOUGOU;;2.3;;PMH;PMH;COTE D'IVOIRE
355;GBONDOUGOU;8.6324;-5.8476;;DIKODOUGOU;;3;;PMH;PMH;COTE D'IVOIRE
356;KIEKAHA;9.2965;-5.5754;;KORHOGO;;5.4;;PMH;PMH;COTE D'IVOIRE
357;NAHOUOKAHA;;;;KORHOGO;;3.6;;PMH;PMH;COTE D'IVOIRE
358;DRAMANEVOGO;;;;KORHOGO;;4;;PMH;PMH;COTE D'IVOIRE
359;KAYANKAHA;;;;SINEMATIALI;;1.2;;PMH;PMH;COTE D'IVOIRE
360;NAKOUROUBELEKAHA;;;;SINEMATIALI;;13.7;;PMH;PMH;COTE D'IVOIRE
361;NONGOPIKAHA;;;;SINEMATIALI;;1.2;;PMH;PMH;COTE D'IVOIRE
362;DIETIKAHA;9.925;-5.1694;;FERKESSEDOUGOU;;1;;PMH;PMH;COTE D'IVOIRE
363;HOUPHOUEKAHA;9.6005;-5.284;;FERKESSEDOUGOU;;10;;PMH;PMH;COTE D'IVOIRE
364;KAWELIVOGO (SEPENEDIOKAHA);9.8319;-5.1786;;FERKESSEDOUGOU;;1.5;;PMH;PMH;COTE D'IVOIRE
365;LAGBIN;9.6154;-4.9998;;FERKESSEDOUGOU;;1.7;;PMH;PMH;COTE D'IVOIRE
366;LEGOUVOGO;9.6498;-5.2399;;FERKESSEDOUGOU;;1;;PMH;PMH;COTE D'IVOIRE
367;MOMIRASSO;9.7089;-5.1716;;FERKESSEDOUGOU;;1.5;;PMH;PMH;COTE D'IVOIRE
368;TATIEN;9.8942;-5.1433;;FERKESSEDOUGOU;;1.2;;PMH;PMH;COTE D'IVOIRE
369;OUOROSSONCTHAKAHA;9.7061;-5.0879;;FERKESSEDOUGOU;;1.2;;PMH;PMH;COTE D'IVOIRE
370;KIPETCHRIGUEVOGO;;;;FERKESSEDOUGOU;;5;;PMH;PMH;COTE D'IVOIRE
371;VILLAGE A QT NOIR;9.597;-5.2657;;FERKESSEDOUGOU;;2;;PMH;PMH;COTE D'IVOIRE
372;PEGATCHINVOGO;;;;FERKESSEDOUGOU;;3;;PMH;PMH;COTE D'IVOIRE
373;DEKOKAHA;9.925;-5.1694;;FERKESSEDOUGOU;;2;;PMH;PMH;COTE D'IVOIRE
374;DJIMGBORO (TIEPKE);9.6837;-5.3146;;FERKESSEDOUGOU;;1;;PMH;PMH;COTE D'IVOIRE
375;KINIENKAHA;;;;FERKESSEDOUGOU;;2;;PMH;PMH;COTE D'IVOIRE
376;KARAOUITA;9.0543;-4.4064;;KONG;;2;;PMH;PMH;COTE D'IVOIRE
377;KONGOLO TOLO;9.1184;-4.4917;;KONG;;1.5;;PMH;PMH;COTE D'IVOIRE
378;PARAKA;;;;KONG;;2.5;;PMH;PMH;COTE D'IVOIRE
379;SARANDALA;9.4429;-4.4635;;KONG;;1.3;;PMH;PMH;COTE D'IVOIRE
380;DAMAYIRA;;;;;;1.4;;PMH;PMH;COTE D'IVOIRE
381;DJIGUITOGO;;;;;;14;;PMH;PMH;COTE D'IVOIRE
382;GALGOLGO;10.3605;-5.676;;NIELLE;;1.5;;PMH;PMH;COTE D'IVOIRE
383;TIOGO;10.4014;-5.673;;NIELLE;;1;;PMH;PMH;COTE D'IVOIRE
384;PLEOUO;10.0353;-5.2808;;OUANGOLODOUGOU;;1;;PMH;PMH;COTE D'IVOIRE
385;MABIADOUGOU;;;;OUANGOLODOUGOU;;10;;PMH;PMH;COTE D'IVOIRE
386;NOUMOUSSOKPASSOLA;10.1132;-5.1444;;OUANGOLODOUGOU;;3;;PMH;PMH;COTE D'IVOIRE
388;KORONDOUGOU;13.0165;-1.5042;;ODIENNE;;6;;AEP;AEP;COTE D'IVOIRE
389;OUATTARADOUGOU;8.6723;-5.8176;;DIKODOUGOU;;4.2;;AEP;AEP;COTE D'IVOIRE
390;KADIOHA;8.9631;-5.8815;;DIKODOUGOU;;6;;AEP;AEP;COTE D'IVOIRE
391;FAPAHA MASSA-FOAVOGO;9.4929;-5.8342;;KORHOGO;;13.5;;AEP;AEP;COTE D'IVOIRE
392;KOKAHA;9.6383;-5.7316;;KORHOGO;;14;;AEP;AEP;COTE D'IVOIRE
393;BINGUEBOUGOU;9.5208;-5.814;;KORHOGO;;7.7;;AEP;AEP;COTE D'IVOIRE
394;OLEO-ODORO;9.6627;-5.7512;;KORHOGO;;9.2;;AEP;AEP;COTE D'IVOIRE
395;DAGBA;9.2515;-5.9653;;KORHOGO;;22.6;;AEP;AEP;COTE D'IVOIRE
396;DOHIRIGUEKAHA;9.4707;-5.396;;SINEMATIALI;;16;;AEP;AEP;COTE D'IVOIRE
397;KASSIONGOKOURA;10.017;-5.5735;;OUANGOLODOUGOU;;14;;AEP;AEP;COTE D'IVOIRE
398;BROUNDOUGOU;9.9982;-5.1614;;OUANGOLODOUGOU;;8.5;;AEP;AEP;COTE D'IVOIRE
399;TORLA / NOUMOUSSO;9.9926;-5.1811;;OUANGOLODOUGOU;;6.5;;AEP;AEP;COTE D'IVOIRE
400;GBINZO 2;10.0544;-5.2547;;OUANGOLODOUGOU;;3.5;;AEP;AEP;COTE D'IVOIRE
401;POULO;9.6532;-5.081;;FERKESSEDOUGOU;;6;;AEP;AEP;COTE D'IVOIRE
403;NAFADOUGOU;9.9427;-7.561904;;KANIASSO;;0.9;;PMH;PMH;COTE D'IVOIRE
404;SIOLA;9.861;-7.450724;;KANIASSO;;0.85;;PMH;PMH;COTE D'IVOIRE
405;MORI BRAHIMADOUGOU;9.9013;-7.457894;;KANIASSO;;0.9;;PMH;PMH;COTE D'IVOIRE
406;DOUMBALA;9.8811;-7.408049;;KANIASSO;;7;;PMH;PMH;COTE D'IVOIRE
407;ZIEMOUGOULA;9.9188;-7.436583;;KANIASSO;;1;;PMH;PMH;COTE D'IVOIRE
408;SOKOURABA;10.0546;-7.620696;;MINIGNAN;;2;;PMH;PMH;COTE D'IVOIRE
409;NABAGALA;10.1654;-7.656529;;MINIGNAN;;12;;PMH;PMH;COTE D'IVOIRE
410;TIEMBA1;10.1357;-7.849007;;MINIGNAN;;3.5;;PMH;PMH;COTE D'IVOIRE
411;SOMATOU;10.0832;-7.972165;;MINIGNAN;;4;;PMH;PMH;COTE D'IVOIRE
412;FANHALA;9.9359;-8.024693;;MINIGNAN;;0.9;;PMH;PMH;COTE D'IVOIRE
413;FEREDOUGOU;9.8419;-7.740238;;SAMATIGUILA;;1.2;;PMH;PMH;COTE D'IVOIRE
414;KERE BADOUGOU;9.9482;-7.619558;;SAMATIGUILA;;4;;PMH;PMH;COTE D'IVOIRE
415;KERE 2;9.7736;-7.707988;;SAMATIGUILA;;4.5;;PMH;PMH;COTE D'IVOIRE
416;KENINGOUARA;9.9737;-7.65766;;SAMATIGUILA;;5;;PMH;PMH;COTE D'IVOIRE
417;BOUGOUSSA (Département de Minignan (Folon));9.9728;-7.511763;;SAMATIGUILA;;1.7;;PMH;PMH;COTE D'IVOIRE
418;N’DOLA;9.719;-7.640752;;SAMATIGUILA;;0.85;;PMH;PMH;COTE D'IVOIRE
419;FEMBYASSO;9.6355;-6.926119;;MADINANI;;1.2;;PMH;PMH;COTE D'IVOIRE
420;N’GBEDO (S/P Goulia (Folon));9.8796;-7.2195;;MADINANI;;1;;PMH;PMH;COTE D'IVOIRE
421;SAMAKONA (S/P Goulia (Folon));9.9666;-7.225331;;MADINANI;;7;;PMH;PMH;COTE D'IVOIRE
422;SANABA;9.6144;-6.968101;;MADINANI;;7.2;;PMH;PMH;COTE D'IVOIRE
423;SEME (S/P Mahandiana Sokouarani (Folon));10.1528;-7.120871;;MADINANI;;6;;PMH;PMH;COTE D'IVOIRE
424;BROMASSO;9.6822;-7.154839;;MADINANI;;1;;PMH;PMH;COTE D'IVOIRE
425;SEGUEBE;9.5545;-7.217074;;MADINANI;;1.8;;PMH;PMH;COTE D'IVOIRE
426;KOONA;8.8638;-7.414388;;ODIENNE;;0.8;;PMH;PMH;COTE D'IVOIRE
427;KAHANLO;8.7372;-7.588046;;ODIENNE;;3;;PMH;PMH;COTE D'IVOIRE
428;MAMOYA;8.8814;-7.539373;;ODIENNE;;1;;PMH;PMH;COTE D'IVOIRE
429;MAMOUROUDOUGOU;8.7187;-7.343685;;ODIENNE;;2.8;;PMH;PMH;COTE D'IVOIRE
430;MOYA 2;8.9178;-7.418101;;ODIENNE;;1;;PMH;PMH;COTE D'IVOIRE
431;ZANDOUGOU;8.9857;-7.459388;;ODIENNE;;1.3;;PMH;PMH;COTE D'IVOIRE
432;BOGODOUGOU;9.6784;-7.901164;;ODIENNE;;2;;PMH;PMH;COTE D'IVOIRE
433;MAMOUGOULA;9.8237;-7.637765;;ODIENNE;;0.9;;PMH;PMH;COTE D'IVOIRE
434;ODIENNE SIENSO;9.4104;-7.513348;;ODIENNE;;1.2;;PMH;PMH;COTE D'IVOIRE
435;NAFANA SIENSO;9.2598;-7.43726;;ODIENNE;;6;;PMH;PMH;COTE D'IVOIRE
436;NANESSO NAFANA;9.21;-7.581648;;ODIENNE;;1;;PMH;PMH;COTE D'IVOIRE
437;MASSADOUGOU;9.1097;-7.379585;;ODIENNE;;5;;PMH;PMH;COTE D'IVOIRE
438;DAGABA;8.9162;-7.306664;;ODIENNE;;2.8;;PMH;PMH;COTE D'IVOIRE
439;KOTOU 2;10.4227;-6.345511;;TENGRELA;;2.6;;PMH;PMH;COTE D'IVOIRE
440;IRIBASSO;10.6065;-6.341063;;TENGRELA;;27;;PMH;PMH;COTE D'IVOIRE
442;WAYERI;10.1199;-6.9141;;KANIASSO;;6.2;;AEP;AEP;COTE D'IVOIRE
443;TAHARA;10.1565;-7.1216;;KANIASSO;;6;;AEP;AEP;COTE D'IVOIRE
444;KOROUMBA;9.8139;-7.1049;;MADINANI;;10;;AEP;AEP;COTE D'IVOIRE
445;SIANSSOBA;9.5987;-7.0706;;MADINANI;;6;;AEP;AEP;COTE D'IVOIRE
446;OUAZOMON;9.4071;-6.5009;;BONDIALI;;9.6;;AEP;AEP;COTE D'IVOIRE
447;LAFI;9.6896;-6.1473;;BONDIALI;;8.7;;AEP;AEP;COTE D'IVOIRE
448;ZIASSO;9.9985;-6.5272;;KOUTO;;12.1;;AEP;AEP;COTE D'IVOIRE
449;KELEGBALA;10.0299;-6.7636;;KOUTO;;7;;AEP;AEP;COTE D'IVOIRE
450;MONONGO;9.8328;-6.6063;;KOUTO;;23.6;;AEP;AEP;COTE D'IVOIRE
451;TINASSO;9.9188;-6.6466;;KOUTO;;6.4;;AEP;AEP;COTE D'IVOIRE
452;TINDARA;9.69;-6.1782;;KOUTO;;12;;AEP;AEP;COTE D'IVOIRE
453;KOULOUSSON;10.6951;-6.3676;;TENGRELA;;8.8;;AEP;AEP;COTE D'IVOIRE
454;MBELE;10.2791;-6.5783;;TENGRELA;;8.5;;AEP;AEP;COTE D'IVOIRE
455;NEGUEPIE;10.3498;-6.5145;;TENGRELA;;9;;AEP;AEP;COTE D'IVOIRE
456;KIERE;9.0955;-6.061;;KORHOGO;;7.4;;AEP;AEP;COTE D'IVOIRE
457;TALLERE;9.2014;-6.147;;KORHOGO;;8;;AEP;AEP;COTE D'IVOIRE
459;Diondougou 2;12.4389166666667;-6.79536111111111;Kaladougou;;Dioila;1.5;44173;PMH;PMH;MALI
460;Diondougou 1;12.4388055555556;-6.797;Kaladougou;;Dioila;4.5;44173;PMH;PMH;MALI
461;Fouga 2;12.4396944444444;-6.72330555555556;Kaladougou;;Dioila;3;44173;PMH;PMH;MALI
462;Fouga 1;12.4382777777778;-6.72333333333333;Kaladougou;;Dioila;1.3;44173;PMH;PMH;MALI
463;Tonga 1;12.4986944444444;-6.86736111111111;Kaladougou;;Dioila;2.25;44173;PMH;PMH;MALI
464;Tabacoro 1;12.4577777777778;-7.05747222222222;Kaladougou;;Dioila;17;44173;PMH;PMH;MALI
465;Tabacoro 2;12.4577777777778;-7.05744444444444;Kaladougou;;Dioila;15;44173;PMH;PMH;MALI
466;Tièkélébougou;12.4176388888889;-7.10138888888889;N'Gara;;Dioila;1.2;44173;PMH;PMH;MALI
467;SanankoroDaga;12.3689166666667;-7.13425;N'Gara;;Dioila;7.2;44173;PMH;PMH;MALI
468;Dandougou;12.3961388888889;-7.105;N'Gara;;Dioila;6.9;44173;PMH;PMH;MALI
469;SirakoroDjeda 1;12.1825555555556;-6.60872222222222;N'Golobougou;;Dioila;15;44174;PMH;PMH;MALI
470;SirakoroDjeda 2;12.1828611111111;-6.61280555555556;N'Golobougou;;Dioila;12;44174;PMH;PMH;MALI
471;Daoudabougou;12.2507777777778;-7.07405555555555;Kèmè-Kafo;;Dioila;4;44174;PMH;PMH;MALI
472;Kanfara Foula;12.1498611111111;-6.87438888888889;Kèmè-Kafo;;Dioila;5.9;44174;PMH;PMH;MALI
473;Conzé;11.8354166666667;-6.97952777777778;Massigui;;Dioila;4;44174;PMH;PMH;MALI
474;Wolokoro;12.9247777777778;-6.49536944444444;Massigui;;Dioila;7;44174;PMH;PMH;MALI
475;Kouantou;11.8658611111111;-6.52391666666667;Niantjila;;Dioila;0.48;44174;PMH;PMH;MALI
476;Banantou;12.5136666666667;-6.52405555555556;Dolendougou;;Dioila;10;44175;PMH;PMH;MALI
477;Niontona;12.5890833333333;-6.47594444444444;Dolendougou;;Dioila;6.5;44175;PMH;PMH;MALI
478;Koumaréla 1;12.6060555555556;-6.53127777777778;Dolendougou;;Dioila;0.8;44175;PMH;PMH;MALI
479;Koumaréla 2;12.6091666666667;-6.53608333333333;Dolendougou;;Dioila;2.07;44175;PMH;PMH;MALI
480;Dandougou    Second cycle;12.5578055555556;-6.44147222222222;Dolendougou;;Dioila;1.5;44175;PMH;PMH;MALI
481;Dandougou Mairie;12.5495555555556;-6.49061111111111;Dolendougou;;Dioila;1.8;44175;PMH;PMH;MALI
482;Tinzana 2;12.169;-6.08811111111111;N'Dlondougou;;Dioila;2.3;44175;PMH;PMH;MALI
483;Tinzana 1;12.1726666666667;-6.08636111111111;N'Dlondougou;;Dioila;2.7;44175;PMH;PMH;MALI
484;Nalla 2 (Ecole);12.9555833333333;-7.36641666666667;Ténindougou;;Dioila;3;44176;PMH;PMH;MALI
485;Nalla 1;12.5713333333333;-7.21869444444444;;;Dioila;1.5;44176;PMH;PMH;MALI
486;Djifina;12.6766666666667;-6.73216666666667;Wakoro;;Dioila;2.1;44175;PMH;PMH;MALI
487;Soro (Dioumanza);12.5404166666667;-7.36963888888889;Diouman;;Dioila;7;44176;PMH;PMH;MALI
488;Dioni;12.9800555555556;-7.16988888888889;Dinandougou;;Koulikoro;3.5;44180;PMH;PMH;MALI
489;Fatiambougou;13.0109722222222;-7.17752777777778;Dinandougou;;Koulikoro;1.1;44180;PMH;PMH;MALI
490;Marina;13.0237777777778;-7.16858333333333;Dinandougou;;Koulikoro;1.5;44180;PMH;PMH;MALI
491;Fotiguibougou;13.02675;-7.15663888888889;Dinandougou;;Koulikoro;1.5;44180;PMH;PMH;MALI
492;Falikèbougou;13.0272222222222;-7.17519444444445;Dinandougou;;Koulikoro;10;44180;PMH;PMH;MALI
493;Kodabougou;13.0549166666667;-7.16058333333333;Dinandougou;;Koulikoro;7;44180;PMH;PMH;MALI
494;Dinan Marka;13.0549166666667;-7.16058333333333;Dinandougou;;Koulikoro;15;44180;PMH;PMH;MALI
495;Mamadibougou;13.0549166666667;-7.16058333333333;Dinandougou;;Koulikoro;5.7;44180;PMH;PMH;MALI
496;Kassabougou;13.0485277777778;-7.2775;Dinandougou;;Koulikoro;12;44180;PMH;PMH;MALI
497;Banankoro;13.0849166666667;-7.14744444444444;Dinandougou;;Koulikoro;2;44180;PMH;PMH;MALI
498;Boubabougou (Doubala);13.0356944444444;-7.24791666666667;Dinandougou;;Koulikoro;12;44180;PMH;PMH;MALI
499;Hourougou;13.1113888888889;-7.167;Dinandougou;;Koulikoro;6.7;44180;PMH;PMH;MALI
500;Doubala;13.0548888888889;-7.26108333333333;Dinandougou;;Koulikoro;8;44180;PMH;PMH;MALI
501;Kaliyabougou;13.0396111111111;-7.22097222222222;Dinandougou;;Koulikoro;1.2;44180;PMH;PMH;MALI
502;Kiyiban 2;13.1628888888889;-7.33377777777778;Tougouni;;Koulikoro;12;44183;PMH;PMH;MALI
503;Kiyiban 1;13.1641666666667;-7.3305;Tougouni;;Koulikoro;9;44183;PMH;PMH;MALI
504;Fougalembougou;13.1641666666667;-7.3305;Sirakorola;;Koulikoro;3.6;44181;PMH;PMH;MALI
505;Fassoumbougou 1;13.5936388888889;-6.92486111111111;Niamina;;Koulikoro;2.2;44183;PMH;PMH;MALI
506;Fassoumbougou 2;13.5929166666667;-6.92475;Niamina;;Koulikoro;1;44183;PMH;PMH;MALI
507;TamaniBabara 2;13.53175;-6.90280555555556;Niamina;;Koulikoro;4;44183;PMH;PMH;MALI
508;Tamani Bambara 1;13.5401944444444;-6.89713888888889;Niamina;;Koulikoro;1.5;44183;PMH;PMH;MALI
509;FignanDialakoro;13.0118333333333;-7.40861111111111;Meguetan;;Koulikoro;6.8;44180;PMH;PMH;MALI
510;Sinzani-Séribougou;13.0686111111111;-7.5425;Doumba;;Koulikoro;1.8;44181;PMH;PMH;MALI
511;DiocoSocoro;13.0100833333333;-7.82563888888889;Koula;;Koulikoro;3.8;44181;PMH;PMH;MALI
512;Dogotou;13.4138611111111;-7.33036111111111;Duguwolonfula;;Banamba ;1.5;44186;PMH;PMH;MALI
513;Maribougou;13.6628055555556;-7.50544444444444;MadinaSacko;;Banamba ;2.5;44186;PMH;PMH;MALI
514;Bégnini;13.4144444444444;-7.56263888888889;Benkadi;;Banamba ;2.7;44186;PMH;PMH;MALI
515;Massakoni 2;12.6434722222222;-7.71241666666667;Baguinéda-camp;;Kati ;1.7;44182;PMH;PMH;MALI
516;Massakoni 1;12.6419444444444;-7.71341666666667;Baguinéda-camp;;Kati ;2.8;44182;PMH;PMH;MALI
517;Soro;12.5079416666667;-7.71055833333333;Baguinéda-camp;;Kati ;2.5;44182;PMH;PMH;MALI
518;Dara 1;12.4969472222222;-7.83239166666667;Mountougoula;;Kati ;15;44182;PMH;PMH;MALI
519;Dara 2;12.4967805555556;-7.82538333333333;Mountougoula;;Kati ;20;44182;PMH;PMH;MALI
520;Farako Mountougoula;12.5449722222222;-7.86066666666667;Kalabancoro;;Kati ;2.2;44183;PMH;PMH;MALI
521;Diatoula;12.5107222222222;-7.85963888888889;Kalabancoro;;Kati ;30;44183;PMH;PMH;MALI
522;Missala;12.5088888888889;-8.00086111111111;Kalabancoro;;Kati ;15;44183;PMH;PMH;MALI
523;Fassirissoumana;12.4748055555556;-7.43163888888889;N'Gouraba;;Kati ;0.85;44182;PMH;PMH;MALI
524;Fassirissoumana;12.4754722222222;-7.43230555555556;N'Gouraba;;Kati ;6;44182;PMH;PMH;MALI
525;Bobola 1;12.2233611111111;-7.38341666666667;Tièlè;;Kati ;10;44182;PMH;PMH;MALI
526;Bobola 1;12.2166666666667;-7.38333333333333;Tièlè;;Kati ;1.1;44182;PMH;PMH;MALI
527;Konatéla;12.3163611111111;-7.62216666666667;Tièlè;;Kati ;15;44182;PMH;PMH;MALI
528;TorodoBassibougou;12.8161666666667;-7.94219444444444;Safo;;Kati ;3.6;44183;PMH;PMH;MALI
529;TorodoDougourakoro;12.8008611111111;-7.95005555555556;Safo;;Kati ;6;44183;PMH;PMH;MALI
530;ZorokoroKodialan;12.7558333333333;-7.96597222222222;Safo;;Kati ;1.3;44183;PMH;PMH;MALI
531;Zorokoro Centre de santé;12.751;-7.97622222222222;Safo;;Kati ;3.2;44183;PMH;PMH;MALI
532;Diamssabougou;12.4577777777778;-7.05744444444444;Safo;;Kati ;6;44183;PMH;PMH;MALI
533;Kalifabougou;12.9560277777778;-8.15838888888889;Kalifabougou;;Kati ;1.8;44187;PMH;PMH;MALI
534;Kalifabougou;12.9533888888889;-8.26525;Kalifabougou;;Kati ;8;44187;PMH;PMH;MALI
535;Méri (Simbobougou);13.0258055555556;-7.90619444444444;Yélékébougou;;Kati ;1.3;44187;PMH;PMH;MALI
536;M'Bamala;13.0497694444444;-8.01201388888889;Yélékébougou;;Kati ;7.2;44187;PMH;PMH;MALI
537;N’Kobougou 1;12.026;-7.70088888888889;Sanankoro-Djitoumou;;Kati ;4;44189;PMH;PMH;MALI
538;N’Kobougou 2;12.0244444444444;-7.70225;Sanankoro-Djitoumou;;Kati ;2;44189;PMH;PMH;MALI
539;Zandiéla;12.0034722222222;-7.57141666666667;Sanankoro-Djitoumou;;Kati ;1.9;44189;PMH;PMH;MALI
540;Soba Banambani;12.1755833333333;-7.47380555555556;Sanankoro-Djitoumou;;Kati ;2.5;44189;PMH;PMH;MALI
541;Soba Diassa;12.1570277777778;-7.52861111111111;Sanankoro-Djitoumou;;Kati ;;44189;PMH;PMH;MALI
542;Solenkoro;12.1853611111111;-8.04227777777778;Dialakoroba;;Kati ;6.2;44189;PMH;PMH;MALI
543;Kamanéguéla;11.7106111111111;-8.12236111111111;TiakadougouDialakoro;;Kati ;4.5;44189;PMH;PMH;MALI
544;Koléna;12.3928611111111;-8.90711111111111;NioumaMakana;;Kati ;1;44189;PMH;PMH;MALI
545;KéniébaKouta;12.4842777777778;-8.91802777777778;NioumaMakana;;Kati ;3.6;44189;PMH;PMH;MALI
546;KéniébaKouta;12.4846944444444;-8.91672222222222;NioumaMakana;;Kati ;5;44189;PMH;PMH;MALI
547;Ténéya;12.3211388888889;-8.29272222222222;Siby;;Kati ;5;44190;PMH;PMH;MALI
548;Kalaya;12.3533416666667;-8.29438888888889;Siby;;Kati ;24;44190;PMH;PMH;MALI
549;Morola;12.3704305555556;-8.30790277777778;Siby;;Kati ;18;44190;PMH;PMH;MALI
550;Fouh école;11.8756388888889;-8.37411111111111;Maramandougou;;Kangaba;2.9;44189;PMH;PMH;MALI
551;Fouh village;11.8723611111111;-8.37808333333333;Maramandougou;;Kangaba;5;44189;PMH;PMH;MALI
552;Banan;13.7738888888889;-7.82569444444444;Massantola;;Kolokani;2;44185;PMH;PMH;MALI
553;Banan Hameau  Makambougou;13.7740555555556;-7.95888888888889;Massantola;;Kolokani;10;44185;PMH;PMH;MALI
554;Sirekebougou/  Gouhina Bambara;13.76175;-7.76175;Massantola;;Kolokani;5;44185;PMH;PMH;MALI
555;Fondobougou;13.5198055555556;-8.29575;Guihoyo;;Kolokani;9;44187;PMH;PMH;MALI
556;Flabougou 1;13.2697222222222;-8.04305555555556;Guihoyo;;Kolokani;1;44187;PMH;PMH;MALI
557;Flabougou 2;13.2733333333333;-8.04666666666667;Guihoyo;;Kolokani;2.5;44187;PMH;PMH;MALI
558;Sirabobougou;13.3212777777778;-8.16713888888889;Guihoyo;;Kolokani;1.7;44187;PMH;PMH;MALI
559;Siranindjè;13.4538138888889;-8.23982777777778;Guihoyo;;Kolokani;3;44187;PMH;PMH;MALI
560;Totaba;13.8611666666667;-8.43141666666667;Guihoyo;;Kolokani;7;44187;PMH;PMH;MALI
561;Tiemabougou;13.4509888888889;-8.23962777777778;Guihoyo;;Kolokani;8;44187;PMH;PMH;MALI
562;Samakorola;13.9091666666667;-8.15491666666667;Didièni;;Kolokani;0.9;44188;PMH;PMH;MALI
563;Bouatou;14.0326111111111;-8.12325;Didièni;;Kolokani;0.5;44188;PMH;PMH;MALI
564;Bouatou;14.0166666666667;-8.11666666666667;Didièni;;Kolokani;6;44188;PMH;PMH;MALI
565;Diarrabougou 1 Marché;14.0188888888889;-8.28222222222222;Didièni;;Kolokani;9;44188;PMH;PMH;MALI
566;Sirini 1;14.0371111111111;-8.07558333333333;Sagabala;;Kolokani;7;44188;PMH;PMH;MALI
567;Sirini 2;14.0369444444444;-8.07575;Sagabala;;Kolokani;3;44188;PMH;PMH;MALI
568;Katiéla Hameau N’Torbarla;14.2414722222222;-8.07225;Sagabala;;Kolokani;1.5;44188;PMH;PMH;MALI
569;Sébécoro 1;13.3195;-7.74936111111111;Nonkon;;Kolokani;1.5;44187;PMH;PMH;MALI
570;Sébécoro 2;13.3196944444444;-7.74932777777778;Nonkon;;Kolokani;1.3;44187;PMH;PMH;MALI
571;Ouélédiédo 1;13.2902777777778;-7.95583333333333;Nonkon;;Kolokani;0.75;44187;PMH;PMH;MALI
572;Ouélédiédo 2;13.2852;-7.95466666666667;Nonkon;;Kolokani;1;44187;PMH;PMH;MALI
573;Choudo;13.1628888888889;-7.33377777777778;Ouolodo;;Kolokani;1.5;44187;PMH;PMH;MALI
574;BoilaKakolo;13.7371666666667;-8.35130555555556;Sébécoro 1;;Kolokani;6;44185;PMH;PMH;MALI
575;Boila Bambara;13.7357222222222;-8.34944444444445;Sébécoro 2;;Kolokani;9;44185;PMH;PMH;MALI
576;Dilly hameau Dara;14.9255555555556;-8.76638888888889;Dilly;;Nara ;7;44182;PMH;PMH;MALI
577;Gondaré;16.9264722222222;-5.47583333333333;Allahina;;Nara ;2;44181;PMH;PMH;MALI
578;Goumango;16.9627777777778;-5.47588888888889;Allahina;;Nara ;7;44181;PMH;PMH;MALI
580;MABA (AEP);13.1363916666667;-7.10089444444444;;;Dioila;6;;AEP;AEP;MALI
581;WACORO (AEP);13.0613861111111;-7.08538611111111;;;Dioila;7;;AEP;AEP;MALI
582;IAGADIA(AEP);12.1258333333333;-8.23780555555556;;;Dioila;5;;AEP;AEP;MALI
583;BELEKOU(AES);13.1747888888889;-7.11334166666667;;;Dioila;5;;AEP;AES;MALI
584;FOMBABOUGOU(AES);12.6950277777778;-7.90377777777778;;;Kati;18;;AEP;AES;MALI
585;TOUGOUI(AES);14.1064805555556;-6.16244444444444;;;Koulikoro;10;;AEP;AES;MALI
586;KEIOROBA(AES);12.1284444444444;-8.3475;;;Kati;5;;AEP;AES;MALI
588;AEP KENIEGOUE (AEP);11.7769444444444;-8.61658333333333;;;Kangaba;15;;AEP;AEP;MALI
589;AEP BALAMASSALA (AEP);12.1922222222222;-8.76541666666667;;;Kati;5;;AEP;AEP;MALI
590;AEPBANANKORO KATI (AEP);12.4764166666667;-7.93597222222222;;;Kati;20;;AEP;AEP;MALI
591;AES BANANKORO/KANGABA (AES);11.7166666666667;-8.67777777777778;;;Kangaba;10;;AEP;AES;MALI
592;TIELE (AES);12.3238888888889;-7.54405555555556;;;Kati;15;;AEP;AES;MALI
593;NIAMANA (AES);13.0087222222222;-8.21675;;;Kati;5;;AEP;AES;MALI
594;NIANTOUMANA(AES);13.3175;-7.769;;;Kolokani;5;;AEP;AES;MALI
596;SOUTIANA ET SIEBOUGOU (AEP);16.0267333333333;-6.01943055555556;;;Nara;20;;AEP;AEP;MALI
597;KORONGA(AEP);15.0592555555556;-7.103125;;;Nara;20;;AEP;AEP;MALI
598;SEBETE(AES);15.0891777777778;-7.00086111111111;;;Banamba;9;;AEP;AES;MALI
599;TOUKOROBA(AES);15.0152777777778;-7.00625;;;Banamba;8;;AEP;AES;MALI
600;GUENEIBE(AES);15.7223611111111;-7.48280555555556;;;Nara;5;;AEP;AES;MALI
601;SAMPAGA(AES);15.42725;-8.62858333333333;;;Nara;5;;AEP;AES;MALI
603;Mena;12.2225;-6.21413888888889;N’Dlondougou;;Dioila;5;;AEPMV;SMV;MALI
604;Bonégué;;;N’Dlondougou;;Dioila;3;;AEPMV;SMV;MALI
605;Diarratobougou;;;N’Dlondougou;;Dioila;;;AEPMV;SMV;MALI
606;Sirimambougou;;;N’Dlondougou;;Dioila;;;AEPMV;SMV;MALI
607;Nionfalina;;;N’Dlondougou;;Dioila;;;AEPMV;SMV;MALI
608;Djidiana;;;N’Dlondougou;;Dioila;8;;AEPMV;SMV;MALI
609;Doman 1;12.2568333333333;-6.21266666666667;N’Dlondougou;;Dioila;;;AEPMV;SMV;MALI
610;N’Golobala;;;N’Dlondougou;;Dioila;;;AEPMV;SMV;MALI
611;;;;;;;;;;;MALI
612;Tiéguéna;12.026;-7.70088888888889;Baguineda-Camp-Mountougoula ;;Kati;;;AEPMV;SMV;MALI
613;Mountougoula;;;Baguineda-Camp-Mountougoula ;;Kati;17;;AEPMV;SMV;MALI
614;;;;;;;;;;;MALI
615;Koula;13.0100833333333;-7.82563888888889;Koula;;Koulikoro;20;;AEPMV;SMV;MALI
616;Wolokotoba;;;Koula;;Koulikoro;;;AEPMV;SMV;MALI
617;Socoro;;;Koula;;Koulikoro;;;AEPMV;SMV;MALI
618;Socoura;;;Koula;;Koulikoro;;;AEPMV;SMV;MALI
619;Bodo;;;Koula;;Koulikoro;;;AEPMV;SMV;MALI
621;Gassakoli;13.2653;7.6768;AGUIE;AGUIE;;;;;;NIGER
622;Mai sanfo;13.4067;7.632;AGUIE;AGUIE;;;;;;NIGER
623;Hardo Ganga bi Kabé;13.35417;7.7075;AGUIE;AGUIE;;;;;;NIGER
624;Lébosaboua;13.3815;7.6567;AGUIE;AGUIE;;;;;;NIGER
625;DadjinHalilou I et II;13.313;7.6327;AGUIE;AGUIE;;;;;;NIGER
626;Rafa I et II;13.3987;7.6097;AGUIE;AGUIE;;;;;;NIGER
627;HardoMamane;13.4082;7.6843;AGUIE;AGUIE;;;;;;NIGER
628;DajinAmia;13.476;7.5692;AGUIE;AGUIE;;;;;;NIGER
629;Dajin  Alla;13.51365;7.60859;AGUIE;AGUIE;;;;;;NIGER
630;Dan KadaIbrah;13.5136;7.6587;AGUIE;AGUIE;;;;;;NIGER
631;GuidanTsakin May;13.541;7.8142;AGUIE;AGUIE;;;;;;NIGER
632;HardoTatouma;13.6297;7.8421;AGUIE;AGUIE;;;;;;NIGER
633;AngoualELh Sabra;13.5726;7.82378;AGUIE;AGUIE;;;;;;NIGER
634;HardoDjigo;13.5585;7.5865;AGUIE;AGUIE;;;;;;NIGER
635;Garjagaoy;13.6753;7.6857;AGUIE;AGUIE;;;;;;NIGER
636;Madoubaye;13.7334;7.7048;AGUIE;AGUIE;;;;;;NIGER
637;Dan Gouari;13.603;7.6904;AGUIE;AGUIE;;;;;;NIGER
638;Gobiraoua;13.65808;7.63322;AGUIE;AGUIE;;;;;;NIGER
639;Mantaoua;13.3988;7.6098;AGUIE;AGUIE;;;;;;NIGER
640;Doundoufaua;13.59642;7.6025;AGUIE;AGUIE;;;;;;NIGER
641;GuidanBounou;13.5954;7.6234;AGUIE;AGUIE;;;;;;NIGER
642;Takalmaoua;13.65;7.6557;AGUIE;AGUIE;;;;;;NIGER
643;Hardo Ousmane Rafa Peulh;13.3527;7.61994;AGUIE;AGUIE;;;;;;NIGER
644;Maikourou Peulh;13.459;7.372;AGUIE;AGUIE;;;;;;NIGER
645;KanhinTchiro;13.41228;7.70268;AGUIE;AGUIE;;;;;;NIGER
646;Tsaourara;13.3998;7.5883;TCHADOUA;AGUIE;;;;;;NIGER
647;Gaba lahia;13.3629;7.58004;TCHADOUA;AGUIE;;;;;;NIGER
648;Tambaraoua1;13.39524;7.56545;TCHADOUA;AGUIE;;;;;;NIGER
649;Tambaraoua2;13.38984;7.58174;TCHADOUA;AGUIE;;;;;;NIGER
650;Hardo Aki;13.48585;7.45506;TCHADOUA;AGUIE;;;;;;NIGER
651;HardoGagaré Bi Kaoudjé;13.4114;7.6158;TCHADOUA;AGUIE;;;;;;NIGER
652;Badoukou Peulh;13.34857;7.47859;TCHADOUA;AGUIE;;;;;;NIGER
653;Makaou;13.62642;7.62093;TCHADOUA;AGUIE;;;;;;NIGER
654;Hardo Idi BI  Nomao;13.46974;7.44098;TCHADOUA;AGUIE;;;;;;NIGER
655;Hardo Issa Tsaki;13.4562;7.4654;TCHADOUA;AGUIE;;;;;;NIGER
656;HardoIro Bi Salé;;;TCHADOUA;AGUIE;;;;;;NIGER
657;Hardo  Ali;13.4866;7.4551;TCHADOUA;AGUIE;;;;;;NIGER
658;Garin Gabou Peulh;13.46856;7.46792;TCHADOUA;AGUIE;;;;;;NIGER
659;KahinChantali Quartier Sud;13.43227;7.4516;TCHADOUA;AGUIE;;;;;;NIGER
660;DadjinArzika;13.50228;7.47897;TCHADOUA;AGUIE;;;;;;NIGER
661;Arnagou 1;13.53381;7.50825;TCHADOUA;AGUIE;;;;;;NIGER
662;Guidan Moussa;13.5247;7.4795;TCHADOUA;AGUIE;;;;;;NIGER
663;DadjinHankourao;13.5031;7.55881;TCHADOUA;AGUIE;;;;;;NIGER
664;Ridjiar Amadou;13.5013;7.5292;TCHADOUA;AGUIE;;;;;;NIGER
665;OungoualElhIro;13.49808;7.55844;TCHADOUA;AGUIE;;;;;;NIGER
666;HardoHabou Bi Mani;13.538;7.574;TCHADOUA;AGUIE;;;;;;NIGER
667;HardoMaikano;13.5385;7.5639;TCHADOUA;AGUIE;;;;;;NIGER
668;HardoLéko;13.523;7.589;TCHADOUA;AGUIE;;;;;;NIGER
669;DadjinDangali;13.50229;7.47889;TCHADOUA;AGUIE;;;;;;NIGER
670;HardoDoumbo;13.575;7.466;TCHADOUA;AGUIE;;;;;;NIGER
671;RidjiarHazo;13.443;7.492;TCHADOUA;AGUIE;;;;;;NIGER
672;Tchétani;13.4534;7.5333;TCHADOUA;AGUIE;;;;;;NIGER
673;HardoGnaléGotché Peulh;13.4363;7.536;TCHADOUA;AGUIE;;;;;;NIGER
674;AngoulMalam Soulé;13.50628;7.46772;TCHADOUA;AGUIE;;;;;;NIGER
675;HardoRawayaou;13.452;7.5947;TCHADOUA;AGUIE;;;;;;NIGER
676;ZongonAdamou;13.566;7.565;TCHADOUA;AGUIE;;;;;;NIGER
677;Guidan Dan Biri;13.597;7.524;TCHADOUA;AGUIE;;;;;;NIGER
678;El Tsangna;13.59;7.5395;TCHADOUA;AGUIE;;;;;;NIGER
679;GuidanDjigo;13.5585;7.5865;TCHADOUA;AGUIE;;;;;;NIGER
680;GuidanDjariri;;;TCHADOUA;AGUIE;;;;;;NIGER
681;Rouga Issa;13.408;7.5082;TCHADOUA;AGUIE;;;;;;NIGER
682;Guidan Sani Naroua;13.5923;7.5336;TCHADOUA;AGUIE;;;;;;NIGER
683;Rijiadamana;13.42653;8.07055;GAZAOUA;GAZAOUA;;;;;;NIGER
684;Fara;13.49945;8.01428;GAZAOUA;GAZAOUA;;;;;;NIGER
685;AngoualRabo;13.35688;7.82738;GAZAOUA;GAZAOUA;;;;;;NIGER
686;HardoChaho;13.43032;7.84267;GAZAOUA;GAZAOUA;;;;;;NIGER
687;RijiaMadi;13.3746;7.87102;GAZAOUA;GAZAOUA;;;;;;NIGER
688;RougageKiata;13.35585;7.70865;GAZAOUA;GAZAOUA;;;;;;NIGER
689;Dan Baou;14.3552;7.58315;TCHAKE;MAYAHI ;;;;;;NIGER
690;Guidan Barmou;14.25801;7.59871;TCHAKE;MAYAHI ;;;;;;NIGER
691;Zaroun Doussa;14.39698;7.56286;TCHAKE;MAYAHI ;;;;;;NIGER
692;ZongonMakyayi;14.36328;7.53111;TCHAKE;MAYAHI ;;;;;;NIGER
693;Bari Maoua;14.3115;7.61088;TCHAKE;MAYAHI ;;;;;;NIGER
694;DajinAmani;14.1921;7.6525;TCHAKE;MAYAHI ;;;;;;NIGER
695;GuidanKori;14.2203;7.54421;TCHAKE;MAYAHI ;;;;;;NIGER
696;Tagamawa;14.16167;7.27228;TCHAKE;MAYAHI ;;;;;;NIGER
697;Dan MallamMairakouma;14.24756;7.41717;GUIDAN AMOUMINE;MAYAHI ;;;;;;NIGER
698;Dadin Tamro;14.26003;7.28586;GUIDAN AMOUMINE;MAYAHI ;;;;;;NIGER
699;Guidan Moussa;14.189;7.31514;GUIDAN AMOUMINE;MAYAHI ;;;;;;NIGER
700;Gardi;14.208;7.46214;GUIDAN AMOUMINE;MAYAHI ;;;;;;NIGER
701;Tsokna;;;GUIDAN AMOUMINE;MAYAHI ;;;;;;NIGER
702;Bantacha;14.25372;7.22703;GUIDAN AMOUMINE;MAYAHI ;;;;;;NIGER
703;Guidan Allo;14.25253;7.21264;GUIDAN AMOUMINE;MAYAHI ;;;;;;NIGER
704;Bougoun Gaba;14.235;7.4069;GUIDAN AMOUMINE;MAYAHI ;;;;;;NIGER
705;Salhouhoua;14.129;7.282;GUIDAN AMOUMINE;MAYAHI ;;;;;;NIGER
706;ZakouKala;14.3381;7.30885;GUIDAN AMOUMINE;MAYAHI ;;;;;;NIGER
707;Guidan Sallé;14.137;7.2643;GUIDAN AMOUMINE;MAYAHI ;;;;;;NIGER
708;Saidawa;14.49306;7.24191;GUIDAN AMOUMINE;MAYAHI ;;;;;;NIGER
709;Maski;14.3863;7.257;GUIDAN AMOUMINE;MAYAHI ;;;;;;NIGER
710;Koudidi;14.1867;7.2298;GUIDAN AMOUMINE;MAYAHI ;;;;;;NIGER
711;ElhMaidoki;14.1097;7.56501;MAYREYREY;MAYAHI ;;;;;;NIGER
712;GuidanMasko;14.43637;8.04452;MAYREYREY;MAYAHI ;;;;;;NIGER
713;Komi (Koromi);14.3424;8.0222;MAYREYREY;MAYAHI ;;;;;;NIGER
714;LihidaSofoua;14.4248;8.037;MAYREYREY;MAYAHI ;;;;;;NIGER
715;Hammi;14.15549;7.75688;MAYREYREY;MAYAHI ;;;;;;NIGER
716;Labara;14.2135;7.7807;MAYREYREY;MAYAHI ;;;;;;NIGER
717;GuidanIlly (Illy);14.3647;7.7763;MAYREYREY;MAYAHI ;;;;;;NIGER
718;LihidasabouaToudou;14.4134;8.06208;MAYREYREY;MAYAHI ;;;;;;NIGER
719;Sabon Gari;14.29667;8.03746;MAYREYREY;MAYAHI ;;;;;;NIGER
720;FouraGuirké;14.06683;7.74042;MAYREYREY;MAYAHI ;;;;;;NIGER
721;N’Wala;14.4903;8.0124;MAYREYREY;MAYAHI ;;;;;;NIGER
722;RijiaKaché;14.26135;7.84245;MAYREYREY;MAYAHI ;;;;;;NIGER
723;Dan Maimouna;13.76292;7.70064;KANENBAKACHE;MAYAHI ;;;;;;NIGER
724;Sanda;13.937;7.849;KANENBAKACHE;MAYAHI ;;;;;;NIGER
725;Dan Fouri;13.94;7.7053;KANENBAKACHE;MAYAHI ;;;;;;NIGER
726;GuidanAlley;13.832;7.708;KANENBAKACHE;MAYAHI ;;;;;;NIGER
727;RoumbouTchiké;13.7575;7.67;KANENBAKACHE;MAYAHI ;;;;;;NIGER
728;Kakou Issoufou;13.7526;7.7449;KANENBAKACHE;MAYAHI ;;;;;;NIGER
729;Elou;13.753;7.762;KANENBAKACHE;MAYAHI ;;;;;;NIGER
730;Dakora Peulh;13.805;7.7575;KANENBAKACHE;MAYAHI ;;;;;;NIGER
731;ZongonHardoInoussa;13.79755;7.87335;KANENBAKACHE;MAYAHI ;;;;;;NIGER
732;Aouni;13.8436;8.0236;KANENBAKACHE;MAYAHI ;;;;;;NIGER
733;Dachi;13.8471;7.9991;KANENBAKACHE;MAYAHI ;;;;;;NIGER
734;Dan Gamdji;13.80944;7.81475;KANENBAKACHE;MAYAHI ;;;;;;NIGER
735;Dounka;13.776;7.7095;KANENBAKACHE;MAYAHI ;;;;;;NIGER
736;Koubé;13.9617;7.9694;KANENBAKACHE;MAYAHI ;;;;;;NIGER
737;Dan Bérébéri;13.94464;7.85792;KANENBAKACHE;MAYAHI ;;;;;;NIGER
738;ToudounMaillalé;14.0602;7.79965;ISSAWANE;MAYAHI ;;;;;;NIGER
739;Garin Aman;14.12953;7.49423;ATTATANE;MAYAHI ;;;;;;NIGER
740;Garin Bahago;13.98295;7.535;ATTATANE;MAYAHI ;;;;;;NIGER
742;Balessa;14.0377;4.3202;Dogonkiria ;Doutchi ;;;;AEP;AEP;NIGER
743;Katsari Halidou;14.0971;4.48746;Dogonkiria ;Doutchi ;;;;AEP;AEP;NIGER
744;Tambaguani;13.9642;4.2766;Dogonkiria ;Doutchi ;;;;AEP;AEP;NIGER
745;Illela Akwara;14.0956;4.1576;Dogonkiria ;Doutchi ;;;;AEP;AEP;NIGER
746;Chanono   ;13.70083;4.25483;Dan Kassari;Doutchi ;;;;AEP;AEP;NIGER
747;Bawada Daji 1 et 2;13.7255;4.21289;Dan Kassari;Doutchi ;;;;AEP;AEP;NIGER
748;Kaouara Lahama;13.485;4.2234;Dan Kassari;Doutchi ;;;;AEP;AEP;NIGER
749;Lilato;13.655;4.1849;Dan Kassari;Doutchi ;;;;AEP;AEP;NIGER
750;Ainahi 1, 2, 3,4 et 5;13.8582;4.0109;Matankari ;Doutchi ;;;;AEP;AEP;NIGER
751;Zagone 1, 2, 3 et 4;13.8827;3.9845;Matankari ;Doutchi ;;;;AEP;AEP;NIGER
752;Kordango;14.0679;3.8709;Soucoucoutane ;Doutchi ;;;;AEP;AEP;NIGER
753;Tarsossa;14.047;3.94888;Soucoucoutane ;Doutchi ;;;;AEP;AEP;NIGER
754;Kourya 1 et 2;13.5575;3.7462;Dogon Doutchi ;Doutchi ;;;;AEP;AEP;NIGER
755;Zaziatou;13.0325;3.965;Douméga ;Tlbiri ;;;;AEP;AEP;NIGER
756;Koukoki;13.2731;3.8719;Kore Mairoua ;Tlbiri ;;;;AEP;AEP;NIGER
757;Fakeye;14.4331;3.37194;Filingué;Filingué;;;;AEP;AEP;NIGER
758;Tidani;14.4909;3.38586;Filingué;Filingué;;;;AEP;AEP;NIGER
759;Bombéri;13.8925;3.02194;Tondi Kandia;Filingué;;;;AEP;AEP;NIGER
760;Sabra et Nakira;14.3424;3.82406;Kourfey Centre ;Filingué;;;;AEP;AEP;NIGER
761;Chinagamane;14.34531;3.82406;Kourfey Centre ;Filingué;;;;AEP;AEP;NIGER
762;FAKARA;13.89556;3.32347;Imanan;Filingué;;;;AEP;AEP;NIGER
763;Yello Bena;13.7398;0.68344;Diagorou;Téra ;;;;AEP;AEP;NIGER
764;LARGADI;13.9056;0.77;Diagorou;Téra ;;;;AEP;AEP;NIGER
765;Tibaré Téra;13.909;0.99425;Téra ;Téra ;;;;AEP;AEP;NIGER
766;Taka;13.7658;0.8021;Téra ;Téra ;;;;AEP;AEP;NIGER
767;Karta;14.39506;0.82173;Kokorou;Téra ;;;;AEP;AEP;NIGER
768;Dibblo;14.2156;0.79805;Kokorou;Téra ;;;;AEP;AEP;NIGER
769;Loudji;14.4339;0.9951;Méhanna;Téra ;;;;AEP;AEP;NIGER
770;Gountou yena;14.6962;0.29692;Gorouol;Téra ;;;;AEP;AEP;NIGER
771;Haoussantche;14.5434;0.26353;Gorouol;Téra ;;;;AEP;AEP;NIGER
773;TsamboIlliassou;14.4175;5.91778;BOUZA;BOUZA;;;;AEPMV;AEP;NIGER
774;Ayawane;14.34639;5.83528;TAMA;BOUZA;;;;AEPMV;AEP;NIGER
776;Tsambo Illiassou;14.4175;5.91777777777778;Bouza;;;;;AEPMV;AEP;NIGER
777;Garadoume;14.3666666666667;5.88111111111111;Bouza;;;;;AEPMV;AEP;NIGER
778;Tsambo Tinga;14.4105555555556;5.91833333333333;Bouza;;;;;AEPMV;AEP;NIGER
779;Kaoura Goga;14.3925;5.915;Bouza;;;;;AEPMV;AEP;NIGER
780;Dogon Gona;14.44;5.94833333333333;Bouza;;;;;AEPMV;AEP;NIGER
781;Kaoura Daji;14.3866666666667;5.91;Bouza;;;;;AEPMV;AEP;NIGER
782;Akela;14.4247222222222;5.89722222222222;Bouza;;;;;AEPMV;AEP;NIGER
783;Handirma;14.4452777777778;5.92277777777778;Bouza;;;;;AEPMV;AEP;NIGER
784;Zagya;14.3416666666667;5.92944444444444;Bouza;;;;;AEPMV;AEP;NIGER
785;Ayawane;14.3463888888889;5.83527777777778;Tama;;;;;AEPMV;AEP;NIGER
786;Karayé;14.3491666666667;5.81472222222222;Tama;;;;;AEPMV;AEP;NIGER
787;Takournas;14.3572222222222;5.82388888888889;Tama;;;;;AEPMV;AEP;NIGER
788;Zongon Takournas;14.3647222222222;5.82027777777778;Tama;;;;;AEPMV;AEP;NIGER
789;Tchinoye;14.3677777777778;5.79694444444444;Tama;;;;;AEPMV;AEP;NIGER
790;Wassaro;14.3366666666667;5.8575;Tama;;;;;AEPMV;AEP;NIGER
791;Hawan Amo;14.3380555555556;5.84916666666667;Tama;;;;;AEPMV;AEP;NIGER
793;SAM-NABA;11.054;0.159;;;;5;;AEP;AEP;TOGO
794;BORGOU;10.760806;0.55625;;;;10;;AEP;AEP;TOGO
795;DJABDJOARE;10.946;0.6263;;;;6;;AEP;AEP;TOGO
796;KOUMONGOU;10.1453;0.5311;;;;13;;AEP;AEP;TOGO
797;MOGOU CENTRE;10.381111;0.645833;;;;10.31;;AEP;AEP;TOGO
798;LOKPANO;10.588208;0.122142;;;;7;;AEP;AEP;TOGO
799;MALOGOU;10.6943;0.0853;;;;8;;AEP;AEP;TOGO
800;TAMPIALIME CENTRE;10.733944;0.009083;;;;15;;AEP;AEP;TOGO
801;KORIENTRE CENTRE;11.0071;0.2378;;;;6.67;;AEP;AEP;TOGO
802;USP (Forage récupéré);10.891998;0.297299;;;;5;;AEP;AEP;TOGO
803;LOTOGOU;10.794167;0.020528;;;;8.21;;AEP;AEP;TOGO
804;ALEDJO KADARA;9.284;1.25;;;;8.4;;AEP;AEP;TOGO
805;KAGBANDA;9.481778;0.893222;;;;18;;AEP;AEP;TOGO
806;DIMORI;9.208056;0.588611;;;;27.69;;AEP;AEP;TOGO
807;KEMERIDA;9.688306;1.356833;;;;5.921;;AEP;AEP;TOGO
808;PESSARE 2;9.7446;1.2901;;;;26.7;;AEP;AEP;TOGO
809;NAMON 2 (Kolkolte);9.7866;0.7886;;;;14.2;;AEP;AEP;TOGO
810;BOULOLA;9.87638;1.26192;;;;4.95;;AEP;AEP;TOGO
811;OSSACRE;10.0675;0.715278;;;;8;;AEP;AEP;TOGO
812;PANGOUDA;10.1490556;1.096;;;;4;;AEP;AEP;TOGO
813;POULOU 2;9.6526;1.1916;;;;18;;AEP;AEP;TOGO
814;KADJA;9.670528;1.246917;;;;15;;AEP;AEP;TOGO
815;WARAGNI;8.22117;1.03629;;;;5.7;;AEP;AEP;TOGO
816;TCHIFAMA;8.291433;1.057067;;;;12;;AEP;AEP;TOGO
817;YALOUMBE;8.39127;1.1690068;;;;14;;AEP;AEP;TOGO
818;KELEKADA;8.429665;1.1994;;;;8;;AEP;AEP;TOGO
819;SESSARO;8.6694;1.2114;;;;20;;AEP;AEP;TOGO
820;SOUROUTAWI;8.7902;1.2247;;;;5;;AEP;AEP;TOGO
821;AFOTCHALA KOPE;8.4755;1.2305;;;;8.289;;AEP;AEP;TOGO
822;AGBADADOUDE;9.14;1.264;;;;6;;AEP;AEP;TOGO
823;KASSENA;9.1904117;1.392533;;;;13.8;;AEP;AEP;TOGO
825;GABONI;11.07952778;0.11306111;;;;3.05;;PMH;PMH;TOGO
826;BABIGOU;11.09601667;0.03775;;;;2.04;;PMH;PMH;TOGO
827;NAYÉGOU;10.92;0.2;;;;9;;PMH;PMH;TOGO
828;SIBIRIGBONGBONGUE;10.92;0.634;;;;0.817;;PMH;PMH;TOGO
829;DJIGNINDJOGA;10.00455;0.49656667;;;;3.13;;PMH;PMH;TOGO
830;ONADJOA;11.01918333;0.4045;;;;4;;PMH;PMH;TOGO
831;BOUTONGBANGOU;10.916;0.734;;;;1.3;;PMH;PMH;TOGO
832;FARÉ HAUT;11.013;0.347;;;;7.2;;PMH;PMH;TOGO
833;KPARBOLI;10.60336667;0.4324;;;;2.117;;PMH;PMH;TOGO
834;PADORI;10.217275;0.418527;;;;1.2;;PMH;PMH;TOGO
835;SOUTOUGOU;10.719;0.083;;;;3.428;;PMH;PMH;TOGO
836;POUKPÉRIK;10.652;0.158;;;;10.295;;PMH;PMH;TOGO
837;;10.737;0.144;;;;2.3;;PMH;PMH;TOGO
838;KAMILAGOU HAUT;10.861;0.057;;;;2.15;;PMH;PMH;TOGO
839;BAMTAMBOARÉ;10.82723333;0.23548333;;;;2.571;;PMH;PMH;TOGO
840;LIGBATRE;10.88283333;0.33515;;;;5.142;;PMH;PMH;TOGO
841;KONSOGOU;10.90833333;0.16086667;;;;4.235;;PMH;PMH;TOGO
842;DJAPIENI;10.98124167;0.14974444;;;;1.121;;PMH;PMH;TOGO
843;PANA KONKOAGOU;10.78818333;0.23971667;;;;9;;PMH;PMH;TOGO
844;YEMBOATE 1;11.04673333;0.29788333;;;;8;;PMH;PMH;TOGO
845;BAGNAMA SANFATOUTE;10.94630278;0.29953611;;;;2.692;;PMH;PMH;TOGO
846;BAGNAMA SANFATOUTE;10.953;0.335;;;;3.2;;PMH;PMH;TOGO
847;MATIGA;10.97420556;0.25380556;;;;4;;PMH;PMH;TOGO
848;NAGRE;10.82876667;0.09705;;;;4.718;;PMH;PMH;TOGO
849;KPEGUDJINI;11.016;0.251;;;;3.527;;PMH;PMH;TOGO
850;MOFANTE;10.90267222;0.28301111;;;;1;;PMH;PMH;TOGO
851;;10.863;0.164;;;;0.981;;PMH;PMH;TOGO
852;OPOTIGOU;10.92353611;0.27772222;;;;2.4;;PMH;PMH;TOGO
853;TIDJOATE 3;10.94944722;0.29016111;;;;9;;PMH;PMH;TOGO
854;INTANTCHAGUI-DJOAGUE;10.96292778;0.30271389;;;;1.5;;PMH;PMH;TOGO
855;N'GNASSA;10.96446944;0.30999722;;;;8;;PMH;PMH;TOGO
856;IGNASSAB;10.964;0.337;;;;7.96;;PMH;PMH;TOGO
857;SIDIKI 2;10.85335556;0.26078611;;;;1.01;;PMH;PMH;TOGO
858;KOURDJOAK;10.79138611;0.13538889;;;;4.5;;PMH;PMH;TOGO
859;DASSOUTE;10.76878056;0.04123056;;;;0.947;;PMH;PMH;TOGO
860;KPÉWA;9.335;1.221;;;;2.1;;PMH;PMH;TOGO
861;KPÉWA;9.315;1.285;;;;2.1;;PMH;PMH;TOGO
862;KALAANKPAI;9.423661;1.193748;;;;3.16;;PMH;PMH;TOGO
863;BOUWORO;9.331;1.285;;;;9.84;;PMH;PMH;TOGO
864;TCHABOUA;9.40305556;0.90083333;;;;6.8;;PMH;PMH;TOGO
865;KALANGA;9.23861111;0.69833333;;;;10.8;;PMH;PMH;TOGO
866;MAKPONDO;9.40305556;0.81222222;;;;3.7;;PMH;PMH;TOGO
867;LAKPATIMÉ;9.61361111;0.83416667;;;;8;;PMH;PMH;TOGO
868;LAKPATIMÉ;9.579;0.82;;;;1.4;;PMH;PMH;TOGO
869;BANDJÉLI;9.42222222;0.62305556;;;;13.7;;PMH;PMH;TOGO
870;LAMA TESSI;9.46777778;0.83638889;;;;3.5;;PMH;PMH;TOGO
871;KOUGBLÉTLANDA;9.761023;1.333012;;;;3;;PMH;PMH;TOGO
872;TCHIKAWA;9.71722222;1.28694444;;;;3.978;;PMH;PMH;TOGO
873;SONDÈ;9.77111111;1.22722222;;;;3.692;;PMH;PMH;TOGO
874;KOUDJA;9.80999;1.136254;;;;0.96;;PMH;PMH;TOGO
875;N'WAKPABOUN;9.560199;0.496016;;;;1.03;;PMH;PMH;TOGO
876;TAMAN;9.495277;0.3155555;;;;0.781;;PMH;PMH;TOGO
877;NAWAR;9.64666667;0.80416667;;;;24.16;;PMH;PMH;TOGO
878;SIKAN;9.74166667;0.83444444;;;;1.2;;PMH;PMH;TOGO
879;KOUNASSIGOU;9.775;0.70805556;;;;30;;PMH;PMH;TOGO
880;KAHOUKOU;9.75138889;1.10388889;;;;1.2;;PMH;PMH;TOGO
881;KPADIGA;9.767777;1.100556;;;;5.14;;PMH;PMH;TOGO
882;HOULOULITA;10.04267;0.943402;;;;5.5;;PMH;PMH;TOGO
883;TÉLOUTÈ;9.938169;0.951397;;;;2.88;;PMH;PMH;TOGO
884;KOMTÈ;10.02667;0.8880556;;;;;;PMH;PMH;TOGO
885;AKPANTCHALO;9.99722222;0.8836111;;;;5.14;;PMH;PMH;TOGO
886;OUBIATOUBA;10.1280556;1.085;;;;4;;PMH;PMH;TOGO
887;KANTÈ TAR;10.028525;0.996104;;;;6;;PMH;PMH;TOGO
888;PYAYO;9.50555556;1.045;;;;2.01;;PMH;PMH;TOGO
889;BÈBÈDA;9.409459;1.085454;;;;4.32;;PMH;PMH;TOGO
890;LOHOU;9.71888889;1.19611111;;;;2.514;;PMH;PMH;TOGO
891;HOUDÈ;9.64277778;1.20638889;;;;11.3;;PMH;PMH;TOGO
892;LAMA - BAS;10.07;0.69444444;;;;8;;PMH;PMH;TOGO
893;PYA;9.54805556;1.16861111;;;;1.71;;PMH;PMH;TOGO
894;PYA;9.674762;1.16302;;;;2.5;;PMH;PMH;TOGO
895;AGADE (PYA);9.63008333;1.06322222;;;;8.2;;PMH;PMH;TOGO
896;NIKI NIKI 2;8.3256;1.21555;;;;1.5;;PMH;PMH;TOGO
897;AGBANDAOU;8.092;0.648;;;;4;;PMH;PMH;TOGO
898;KPORODJI;8.117561;1.229111;;;;2.88;;PMH;PMH;TOGO
899;TCHRAMI;8.141794;1.18768;;;;0.818;;PMH;PMH;TOGO
900;TOUYÉDA;8.057755;0.898864;;;;3.13;;PMH;PMH;TOGO
901;NATCHÉVI;8.097276;0.883137;;;;2;;PMH;PMH;TOGO
902;OKOUWAI;8.102542;0.957273;;;;2.181;;PMH;PMH;TOGO
903;TEMBIO PIDA;8.65669;1.10233;;;;2.2;;PMH;PMH;TOGO
904;MATCHADÈ;8.641695;1.045564;;;;3.272;;PMH;PMH;TOGO
905;KAZABOU KPÉLÉWAYI;8.499;0.843;;;;0.876;;PMH;PMH;TOGO
906;TIGBADA;8.481162;0.981705;;;;0.533;;PMH;PMH;TOGO
907;KONKONDÈ;8.591058;1.114976;;;;2.3;;PMH;PMH;TOGO
909;ANIÉ;8.515958;1.353157;;;;0.9;;PMH;PMH;TOGO
910;AFOTCHALA KOPÉ;8.440819;1.27832;;;;0.82;;PMH;PMH;TOGO
911;KPOKPOROKPOWOR;8.35977;1.26435;;;;1.8;;PMH;PMH;TOGO
912;AGOUMANA PIYAYO;8.591425;1.432239;;;;1.1;;PMH;PMH;TOGO
913;BAGO;8.37297;1.388637;;;;2.89;;PMH;PMH;TOGO
914;AGANSIKITI;9.110074;1.502362;;;;0.817;;PMH;PMH;TOGO
915;AGANSIKITI;9.017;1.442;;;;1;;PMH;PMH;TOGO
916;KPANKPANDJA;9.053849;1.409027;;;;1.54;;PMH;PMH;TOGO
917;KÉLÉZIO;9.052;1.258;;;;5.8;;PMH;PMH;TOGO
918;FILANDI SOMOU DJOKER;8.837;1.196;;;;8;;PMH;PMH;TOGO
919;SADA 2;8.767159;1.286417;;;;2.57;;PMH;PMH;TOGO
920;BIRINI;8.951377;1.18275;;;;2.61;;PMH;PMH;TOGO
921;BANDÈ;9.043443;1.344069;;;;2.8;;PMH;PMH;TOGO
922;YÉLIVO EPP;8.955498;1.215575;;;;2.58;;PMH;PMH;TOGO
923;LYOM;8.878003;1.295001;;;;6.2;;PMH;PMH;TOGO
924;AGBASSOUADÈ;8.943272;1.130912;;;;12.085;;PMH;PMH;TOGO
925;DAMALA;8.857802;1.032639;;;;2.769;;PMH;PMH;TOGO
926;AYIWADÈ;9.230525;1.24107;;;;8;;PMH;PMH;TOGO
927;NAOWORO;8.993953;1.161068;;;;0.823;;PMH;PMH;TOGO
928;ATAWORO;9.029;1.148;;;;8.494;;PMH;PMH;TOGO
929;ATAWORO;9.055;1.063;;;;8.494;;PMH;PMH;TOGO
930;KINABOU;9.070138;1.351522;;;;0.8;;PMH;PMH;TOGO
932;Bambarayading;13.12825;-12.0486944444444;Sabodala;Kedougou;;5;;PMH;PMH;SENEGAL
933;Bambaraya;13.1090277777778;-12.0895833333333;Sabodala;Kedougou;;5;;PMH;PMH;SENEGAL
934;Dambala;13.2698055555556;-11.7436111111111;Missira Sirimana;Kedougou;;2;;PMH;PMH;SENEGAL
935;Diakha Guémédié Senegal;12.4989722222222;-11.4366388888889;Madina Baffé;Saraya;;7;;PMH;PMH;SENEGAL
936;Samekouta Dantila;12.5938055555556;-11.6604166666667;Madina Baffé;Saraya;;3;;PMH;PMH;SENEGAL
937;Senodji;12.9148333333333;-12.3420833333333;Tomboroncoto;Kedougou;;4;;PMH;PMH;SENEGAL
938;Saint Etienne;12.91725;-12.3362777777778;Tomboroncoto;Kedougou;;3;;PMH;PMH;SENEGAL
939;Sindakha;12.8980277777778;-12.3716944444444;Tomboroncoto;Kedougou;;1;;PMH;PMH;SENEGAL
940;Silling;12.5426944444444;-12.2722222222222;Bandafassi;Kedougou;;4.2;;PMH;PMH;SENEGAL
941;Daaka Bandafassi;12.5761666666667;-12.3188888888889;Bandafassi;Kedougou;;27;;PMH;PMH;SENEGAL
942;Ndebou;12.5191666666667;-12.4340833333333;Nenefecha;Kedougou;;2;;PMH;PMH;SENEGAL
943;Kinda;12.5305;-12.4668888888889;Nenefecha;Kedougou;;27;;PMH;PMH;SENEGAL
944;Matakossi;12.5216944444444;-12.5123611111111;Nenefecha;Kedougou;;7.2;;PMH;PMH;SENEGAL
945;Djougoul;12.5036111111111;-12.6401944444444;Dakateli;Salemata;;27;;PMH;PMH;SENEGAL
946;Syllacounda;12.4066111111111;-12.5477222222222;Dakateli;Salemata;;3;;PMH;PMH;SENEGAL
947;Haycoumé;12.4842777777778;-12.7053055555556;Kevoye;Salemata;;2;;PMH;PMH;SENEGAL
948;Gadanoumé;12.45625;-12.7485833333333;Kevoye;Salemata;;15;;PMH;PMH;SENEGAL
949;Lalimouli;12.54875;-12.6768055555556;Kevoye;Salemata;;2;;PMH;PMH;SENEGAL
950;Nagnam;12.4714166666667;-12.7726388888889;Kevoye;Salemata;;9;;PMH;PMH;SENEGAL
951;Wallankingui;12.4253055555556;-12.0323333333333;Fongolimbi;Kedougou;;2;;PMH;PMH;SENEGAL
952;Garebourea;12.7070555555556;-11.4359722222222;Bembou;Saraya;;1.5;;PMH;PMH;SENEGAL
953;Linguéa;12.8614166666667;-11.4375277777778;Bembou;Saraya;;2;;PMH;PMH;SENEGAL
954;Manda Khoto;12.8660277777778;-11.4144444444444;Bembou;Saraya;;6;;PMH;PMH;SENEGAL
955;Dioulafoundou;12.8029722222222;-11.8694444444444;Bembou;Saraya;;1.2;;PMH;PMH;SENEGAL
956;Kounsi;12.4381388888889;-12.0789444444444;Fongolimbi;Kedougou;;1.2;;PMH;PMH;SENEGAL
957;Timbery;12.4341944444444;-11.9242777777778;Fongolimbi;Kedougou;;2;;PMH;PMH;SENEGAL
958;Thioune;12.4443611111111;-12.0273055555556;Fongolimbi;Kedougou;;2;;PMH;PMH;SENEGAL
959;DarouS alam;12.4766666666667;-12.0461388888889;Dimboli;Kedougou;;2;;PMH;PMH;SENEGAL
960;Yongoya;12.5045555555556;-12.1477222222222;Dimboli;Kedougou;;3;;PMH;PMH;SENEGAL
961;Poultane;12.5475;-12.8231388888889;Ethiolo;Salemata;;9;;PMH;PMH;SENEGAL
962;Edalé;12.65475;-12.0608611111111;Oubadji;Salemata;;1.2;;PMH;PMH;SENEGAL
963;Yamane 2;12.6625555555556;-12.0715277777778;Oubadji;Salemata;;0.9;;PMH;PMH;SENEGAL
964;Mbouthil;12.6601944444444;-12.9891111111111;Oubadji;Salemata;;2;;PMH;PMH;SENEGAL
965;Ethinangour;12.6682777777778;-13.1150833333333;Oubadji;Salemata;;2;;PMH;PMH;SENEGAL
966;Aladji Aliou;12.6146388888889;-13.0128611111111;Oubadji;Salemata;;2;;PMH;PMH;SENEGAL
967;Samecouta;12.5871111111111;-12.1277777777778;Dimboli;Bandafassi;;6;;PMH;PMH;SENEGAL
968;Fongolimbi;12.4251111111111;-12.0008888888889;Madina Baffé;Saraya;;12;;PMH;PMH;SENEGAL
969;Dian Heri;12.1113611111111;-12.4612777777778;Dimboli;Kedougou;;1.5;;PMH;PMH;SENEGAL
970;Dar Salam;12.6302777777778;-12.7918055555556;Dar Salam;Salemata;;18;;PMH;PMH;SENEGAL
971;Kevoye;12.508;-12.7288611111111;Kevoye;Salemata;;14;;PMH;PMH;SENEGAL
972;Laminia;12.63675;-12.1085833333333;Bandafassi;Kedougou;;10;;PMH;PMH;SENEGAL
973;Diaka Madina;12.772;-11.66675;Bembou;Saraya;;4;;PMH;PMH;SENEGAL
974;Fouloumbou;13.2105555555556;-12.1021944444444;Bembou;Saraya;;;;PMH;PMH;SENEGAL
976;Carrefour Ballou;14.6318888888889;-12.3218888888889;Gabou;Bakel;;9;;PMH;PMH;SENEGAL
977;Sambougou Kadiel;14.66375;-12.3735833333333;Gabou;Bakel;;3;;PMH;PMH;SENEGAL
978;Samba Yide;14.8103611111111;-12.1634444444444;Gabou;Bakel;;1;;PMH;PMH;SENEGAL
979;Fouldé;14.2212222222222;-12.1634444444444;Gathiary;Bakel;;3;;PMH;PMH;SENEGAL
980;Dalaoulé;13.9324166666667;-11.9486666666667;Madina foulbé;Bakel;;2;;PMH;PMH;SENEGAL
981;Karé;13.8864166666667;-12.1639444444444;Madina foulbé;Bakel;;9;;PMH;PMH;SENEGAL
982;Koba;13.7768055555556;-12.1322777777778;Madina foulbé;Bakel;;5;;PMH;PMH;SENEGAL
983;Dioubela;13.7401388888889;-12.0974166666667;Madina foulbé;Bakel;;1;;PMH;PMH;SENEGAL
984;Gourel Gniba;14.2615277777778;-12.338;Sinthiou Fissa;Bakel;;5;;PMH;PMH;SENEGAL
985;Diougoula;14.1990277777778;-12.344;Sinthiou Fissa;Bakel;;9;;PMH;PMH;SENEGAL
986;Falala;13.6658611111111;-12.2926666666667;Sadatou;Bakel;;5;;PMH;PMH;SENEGAL
987;Diaboudoula;13.5559722222222;-12.2574722222222;Sadatou;Bakel;;6;;PMH;PMH;SENEGAL
988;Massakodié;13.4459444444444;-12.2733055555556;Sadatou;Bakel;;9;;PMH;PMH;SENEGAL
989;Diyabougou;13.4299722222222;-11.8764444444444;Sadatou;Bakel;;1;;PMH;PMH;SENEGAL
990;Kodoussou;13.4927777777778;-12.3861388888889;Sadatou;Bakel;;8;;PMH;PMH;SENEGAL
991;Mareba2;13.2688611111111;-12.4763055555556;Boutoucoufara;Goudiry;;3;;PMH;PMH;SENEGAL
992;Diatta fita;13.2327777777778;-12.4878333333333;Boutoucoufara;Goudiry;;12;;PMH;PMH;SENEGAL
993;Nghoghoya;13.4610555555556;-12.4893611111111;Boutoucoufara;Goudiry;;9;;PMH;PMH;SENEGAL
994;Ombaré;13.72175;-12.4078333333333;Boutoucoufara;Goudiry;;12;;PMH;PMH;SENEGAL
995;Gourel Hamady;13.4645833333333;-12.5044722222222;Boutoucoufara;Goudiry;;7;;PMH;PMH;SENEGAL
996;Gourel Ibrahim;13.6078055555556;-12.7629444444444;Dianké Makhan;Goudiry;;2;;PMH;PMH;SENEGAL
997;Goutta Bodiyel F2;13.5679722222222;-12.6909722222222;Dianké Makhan;Goudiry;;1.2;;PMH;PMH;SENEGAL
998;Fouloumbatou;13.6560555555556;-12.73325;Dianké Makhan;Goudiry;;0.8;;PMH;PMH;SENEGAL
999;Sinthiou Dji;13.7021666666667;-13.2924722222222;Goumbayel;Goudiry;;1;;PMH;PMH;SENEGAL
1000;Doulayabé;14.0980555555556;-12.4866388888889;Koussan;Goudiry;;18;;PMH;PMH;SENEGAL
1001;Linguékoné;14.0703611111111;-12.5685277777778;Koussan;Goudiry;;5.5;;PMH;PMH;SENEGAL
1002;Simbarabougoou;14.8775555555556;-12.6842222222222;Dougué;Goudiry;;12;;PMH;PMH;SENEGAL
1003;Parawal;13.9096666666667;-12.6398888888889;Dougué;Goudiry;;1;;PMH;PMH;SENEGAL
1004;Loredji;14.2323333333333;-12.9093055555556;Sinthiou Mamadou Boubou;Goudiry;;12;;PMH;PMH;SENEGAL
1005;Garage Dianweli;14.9529166666667;-12.5796666666667;Moundery;Bakel;;1;;PMH;PMH;SENEGAL
1006;;;;;;;;;PMH;PMH;SENEGAL
1007;Salamatou;14.9105833333333;-12.5316944444444;Moudary;Goudiry;;4;;PMH;PMH;SENEGAL
1008;Binguel;14.5680555555556;-12.8476388888889;Sinthiou M boubou;Goudiry;;3;;PMH;PMH;SENEGAL
1009;Sauwal;14.4644722222222;-12.77975;Sinthiou M boubou;Goudiry;;9;;PMH;PMH;SENEGAL
1010;Boulel;14.6048611111111;-12.70625;Sinthiou boubou;Goudiry;;9;;PMH;PMH;SENEGAL
1011;Tieke;14.5933888888889;-12.7213611111111;Sinthiou Mamadou Boubou;Goudiry;;9;;PMH;PMH;SENEGAL
1012;Kahe;14.8473888888889;-12.5588611111111;Gabou;Goudiry;;;;PMH;PMH;SENEGAL
1013;Thiewtieul;13.7025;-12.4818333333333;Dianké Makhan;Goudiry;;;;PMH;PMH;SENEGAL
1014;Kawoye;13.5406111111111;-12.3922222222222;Dianké Makhan;Goudiry;;;;PMH;PMH;SENEGAL
1015;Loumbol;14.7208333333333;-12.5521388888889;Gabou;Goudiry;;;;PMH;PMH;SENEGAL
1016;Missira Salsabé;14.4541388888889;-12.9458888888889;Sinthiou M boubou;Goudiry;;;;PMH;PMH;SENEGAL
1018;Diakhaling;13.2579166666667;-11.9323055555556;Khossanto;Saraya;;3;;AEP;AES;SENEGAL
1019;Sambradougou;13.1031666666667;-11.8501111111111;Missira Sirimana;Saraya;;4;;AEP;AES;SENEGAL
1020;Khodoko;12.9185;-11.7205;Missira Sirimana;Saraya;;5;;AEP;AES;SENEGAL
1021;Missira Sirimana;12.0893055555556;-11.7003888888889;Missira Sirimana;Saraya;;6;;AEP;AES;SENEGAL
1022;Dialadakhoto;12.9312777777778;-11.4242222222222;Bembou;Saraya;;5;;AEP;AES;SENEGAL
1023;Saroudia;12.52275;-11.57925;Madina Baffé;Saraya;;5;;AEP;AES;SENEGAL
1024;Tomboronkoto;12.7963055555556;-12.2915555555556;Tomboroncoto;Kedougou;;8;;AEP;AES;SENEGAL
1025;Marougoucoto;12.8375;-12.3642777777778;Tomboroncoto;Kedougou;;5;;AEP;AES;SENEGAL
1026;Lesfalo;12.4351111111111;-12.0281388888889;Fongolimbi;Kedougou;;3;;AEP;AES;SENEGAL
1027;Amoune;12.6382777777778;-12.0328055555556;Oubadji;Salemata;;3;;AEP;AES;SENEGAL
1028;Gathiary;14.3075;-12.10325;Gathiary;Bakel;;20;;AEP;AES;SENEGAL
1029;Tomboura;13.9676944444444;-12.2195833333333;Tomboura;Bakel;;24;;AEP;AES;SENEGAL
1030;Madina Tracolé;14.0437777777778;-12.1950833333333;Tomboura;Bakel;;15;;AEP;AES;SENEGAL
1031;Boutoucoufara;13.3995277777778;-13.4866388888889;Boutoucoufara;Goudiry;;7;;AEP;AES;SENEGAL
1032;Bokiguilé;14.5474166666667;-12.9488055555556;Bala;Goudiry;;30;;AEP;AES;SENEGAL
1033;Dielani;13.9117222222222;-12.6915;Dougué;Goudiry;;30;;AEP;AES;SENEGAL
1034;Toulekédi;14.6445833333333;-12.6402777777778;Sinthiou Moussa;Goudiry;;30;;AEP;AES;SENEGAL
1035;Thioubalel Nabadji;15.7558611111111;-13.3530555555556;Nabadji;Matam;;30;;AEP;AES;SENEGAL
1036;Mow;16.0180277777778;-13.4481111111111;Boki Diawé;Matam;;30;;AEP;AES;SENEGAL
1037;Werma;15.1186666666667;-12.7409722222222;Demakane;Kanel;;9;;AEP;AES;SENEGAL
1038;Yerimalé Foulabé;15.0819444444444;-12.8516944444444;Aouré;Kanel;;30;;AEP;AES;SENEGAL
1040;Niangana Thiedel;14.7298055555556;-12.2351111111111;Aouré;Kanel;;2;;AEPMV;AE;SENEGAL
1041;Doude Bague;14.633;-12.922;Aouré;Kanel;;21;;AEPMV;AE;SENEGAL
1042;Mboundou Baba;14.6209166666667;-14.6288333333333;Velingaré Ferlo;Ranerou Ferlo;;40;;AEPMV;AE;SENEGAL
1043;Guirdé Lathié;15.5948333333333;-14.4473888888889;Lougre Thiolly;Ranerou Ferlo;;;;AEPMV;AE;SENEGAL
1044;Sinthiou Bocar Aly;14.2333333333333;-13.5712777777778;Sinthiou Bocar Aly;Goudiry;;35;;AEPMV;AE;SENEGAL
1045;Kouthia gaydi;14.1289166666667;-14.1823888888889;Kouthia gaydi;Koumpentoun;;30;;AEPMV;AE;SENEGAL
1046;Ndam;14.08125;-14.5776111111111;Ndam;Koumpentoun;;35;;AEPMV;AE;SENEGAL
1047;Sinthiou Nimba Demba*;14.0566666666667;-13.4110833333333;Koulor;Goudiry;;35;;AEPMV;AE;SENEGAL
1048;Bantancountouyel;12.8223055555556;-14.9430555555556;Dioulacolon;Kolda;;30;;AEPMV;AE;SENEGAL
1049;Touba Thiékene;13.3481666666667;-15.1324166666667;Bourouco;Medina Yoro Foula;;35;;AEPMV;AE;SENEGAL
1050;Sinthiang Lathiéri;13.3404444444444;-14.9620277777778;Kerevane;Medina Yoro Foula;;35;;AEPMV;AE;SENEGAL
1051;Dinguiraye;13.1763055555556;-13.9969722222222;Nématala;Velingara;;30;;AEPMV;AE;SENEGAL
